siren,nom,chef de l'exécutif,parti politique,type,regcode,url-ptf,nb-ptf,url-datagouv,nb-datagouv,id-datagouv,id-ods,pop-insee,lat,long,merge,depcode
213500010,Acigné,Olivier Dehaese,,COM,BRE-53,https://data.rennesmetropole.fr/explore/?sort=modified&refine.publisher=Commune+d%27Acigné,4,,,,Commune d'Acigné,6275,48.133900,-1.536640,ptf,35
214700015,Agen,Jean Dionis du Séjour,Union pour la démocratie française,COM,NAQ-75,https://data.agen.fr/explore/?refine.publisher=Mairie+d%27Agen,5,https://www.data.gouv.fr/fr/organizations/5bec29278b4c412a07c7ee5f/,68,5bec29278b4c412a07c7ee5f,Mairie d'Agen,34956,44.202482,0.618546,ptf+datagouv,47
216400085,Ahaxe-Alciette-Bascassan,Jean-Paul Bidart,,COM,NAQ-75,,,https://www.data.gouv.fr/fr/organizations/5f55fc85c2d347d5abab8c57/,2,5f55fc85c2d347d5abab8c57,,274,43.145446,-1.165406,datagouv,64
2.10400016E8,Aiglun,Michel Audran,,COM,PAC-93,https://trouver.datasud.fr/organization/commune-daiglun-04,4,,,,,1384,44.049420,6.137558,ptf,4.0
216400135,Ainhice-Mongelos,Jean-Pierre Irigoin,,COM,NAQ-75,,,https://www.data.gouv.fr/fr/organizations/5f340b1cfbebbe5c7c80d24e/,2,5f340b1cfbebbe5c7c80d24e,,173,43.206295,-1.155660,datagouv,64
2.16400143E8,Ainhoa,Michel Ibarlucia,,COM,NAQ-75,,,https://www.data.gouv.fr/fr/organizations/5d4834076f444118283abfcf/,2,5d4834076f444118283abfcf,,672,43.306727,-1.497750,datagouv,64.0
214000010,Aire-sur-l'Adour,Xavier Lagrave,,COM,NAQ-75,,,https://www.data.gouv.fr/fr/organizations/5b9a1371634f417f35dc4a7c/,1,5b9a1371634f417f35dc4a7c,,6099,43.702400,-0.262945,datagouv,40
211300017,Aix-en-Provence,Maryse Joissains-Masini,Union pour la démocratie française,COM,PAC-93,https://aix-en-provence.opendatasoft.com/explore/?sort=modified&refine.publisher=Ville+d%27Aix+en+Provence,3,,,,Ville d'Aix en Provence,143006,43.528300,5.453301,ptf,13
,,,Parti radical,,,,,,,,,,,,,
,,,Union pour un mouvement populaire,,,,,,,,,,,,,
217300086,Aix-les-Bains,Renaud Beretti,,COM,ARA-84,,,https://www.data.gouv.fr/fr/organizations/5ab9e75188ee387964e77c2b/,1,5ab9e75188ee387964e77c2b,,30291,45.688789,5.914682,datagouv,73
218100048,Albi,Stéphanie Guiraud-Chaumeil,,COM,OCC-76,https://opendata.mairie-albi.fr/dataset?q=,24,,,,,48970,43.927755,2.147899,ptf,81
2.15600016E8,Allaire,Jean-François Mary,,COM,BRE-53,,,https://www.data.gouv.fr/fr/organizations/5a1d2901c751df5e50300f1c,1,5a1d2901c751df5e50300f1c,,3902,47.636403,-2.164071,datagouv,56.0
213000102,Anduze,Geneviève Blanc,,COM,OCC-76,,,https://www.data.gouv.fr/fr/organizations/5c49b5498b4c4139d1714d76/,3,5c49b5498b4c4139d1714d76,,3484,44.053800,3.984670,datagouv,30
214900078,Angers,Christophe Béchu,Union pour un mouvement populaire,COM,PDL-52,https://data.angers.fr/explore/?refine.publisher=Ville+d%27Angers,45,,,,Ville d'Angers,155984,47.472070,-0.556585,ptf,49
216400242,Anglet,Claude Olive,,COM,NAQ-75,https://anglet-opendatapaysbasque.opendatasoft.com/explore/?sort=modified,19,,,,,38929,43.476600,-1.513500,ptf,64
210600045,Antibes,Jean Leonetti,Union pour la démocratie française,COM,PAC-93,https://trouver.datasud.fr/organization/ville-dantibes-juan-les-pins,107,,,,,76119,43.571992,7.098750,ptf,06
,,,Parti radical,,,,,,,,,,,,,
,,,Union pour un mouvement populaire,,,,,,,,,,,,,
216400457,Arhansus,Christine Erdozaincy-Etchart,,COM,NAQ-75,,,https://www.data.gouv.fr/fr/organizations/5e66099d634f411da2f28cfd/,2,5e66099d634f411da2f28cfd,,74,43.258160,-1.034527,datagouv,64
215900176,Armentières,Bernard Haesebroeck,,COM,HDF-32,https://opendata.lillemetropole.fr/explore/?refine.publisher=Ville+d%27ARMENTIERES,2,,,,Ville d'ARMENTIERES,25445,50.687158,2.879932,ptf,59
219200045,Asnières-sur-Seine,Manuel Aeschlimann,Union pour un mouvement populaire,COM,IDF-11,https://opendata.hauts-de-seine.fr/explore/?refine.publisher=Ville+d%27Asnières-sur-Seine,5,https://www.data.gouv.fr/fr/organizations/5a61b7a7c751df3fd36ac81a,1,5a61b7a7c751df3fd36ac81a,Ville d'Asnières-sur-Seine,87286,48.910760,2.285095,ptf+datagouv,92
,,,Rassemblement pour la République,,,,,,,,,,,,,
,,,Génération écologie,,,,,,,,,,,,,
,,Manuel Aeschlimann,Union pour un mouvement populaire,,,,,,,,,,,,,
,,,Rassemblement pour la République,,,,,,,,,,,,,
,,,Génération écologie,,,,,,,,,,,,,
213100225,Aucamville,Gérard Andre,,COM,OCC-76,https://data.toulouse-metropole.fr/explore/?refine.publisher=Mairie+d%27Aucamville,4,,,,Mairie d'Aucamville,8203,43.667997,1.429367,ptf,31
213100332,Auterive,René Azema,,COM,OCC-76,https://data.laregion.fr/explore/?disjunctive.publisher&sort=modified&refine.publisher=Commune+d%27Auterive,1,,,,Commune d'Auterive,9417,43.350837,1.477022,ptf,31
217100148,Autun,Vincent Chauvet,Mouvement démocrate,COM,BFC-27,https://www.databfc.fr/bfc/portail,4,https://www.data.gouv.fr/fr/organizations/5bb47c2a634f416334276b4f/,4,5bb47c2a634f416334276b4f,,13635,46.951000,4.297800,ptf+datagouv,71
218400075,Avignon,Cécile Helle,Parti socialiste,COM,PAC-93,https://trouver.datasud.fr/organization/avignon,42,,,,,93968,43.947855,4.807592,ptf,84
216400861,Ayherre,Arnaud Gastambide,,COM,NAQ-75,,,https://www.data.gouv.fr/fr/organizations/5cfa61b1634f411763ec4dff/,2,5cfa61b1634f411763ec4dff,,1034,43.391500,-1.254330,datagouv,64
213400229,Baillargues,Jean-Luc Meissonnier,,COM,OCC-76,http://data.montpellier3m.fr/datasets/commune/baillargues,26,,,,,7202,43.661125,4.012632,ptf,34
213500135,Bains-sur-Oust,Daniel Barre,,COM,BRE-53,,,https://www.data.gouv.fr/fr/organizations/5a1d64a3c751df51a9440eae,8,5a1d64a3c751df51a9440eae,,3524,47.703591,-2.071711,datagouv,35
213100449,Balma,Vincent Terrail-Novès,Les Républicains,COM,OCC-76,https://data.toulouse-metropole.fr/explore/?refine.publisher=Mairie+de+Balma,4,,,,Mairie de Balma,16140,43.609568,1.497847,ptf,31
218300093,Bandol,Jean-Paul Joseph,,COM,PAC-93,https://opendata.sictiam.fr/fr/organization/mairie-de-bandol,1,,,,,8122,43.135894,5.752869,ptf,83
215500299,Bar-le-Duc,Jacques Barbezange,,COM,GES-44,,,https://www.data.gouv.fr/fr/organizations/56b89c46c751df22549f9dea,32,56b89c46c751df22549f9dea,,16337,48.770942,5.166424,datagouv,55
211200563,Baraqueville,Jacques Barbezange,,COM,OCC-76,,,https://www.data.gouv.fr/fr/organizations/59bf94cec751df629f10513d/,1,59bf94cec751df629f10513d,,3141,44.276355,2.432449,datagouv,12
214400103,Batz-sur-Mer,Marie-Catherine Lehuédé,,COM,PDL-52,https://data.paysdelaloire.fr/explore/?disjunctive.diffuseur&disjunctive.gestionnaire&disjunctive.publisher&source=shared&sort=title&refine.publisher=Batz-sur-Mer,1,,,,Batz-sur-Mer,2974,47.277138,-2.479193,ptf,44
2.16401026E8,Bayonne,Jean-René Etchegaray,Union des démocrates et indépendants,COM,NAQ-75,https://www.bayonne.fr/information-transversale/open-data-datagouvfr,52,https://www.data.gouv.fr/fr/datasets/?sort=-created&organization=58d53c4688ee380aeea5e932,52,58d53c4688ee380aeea5e932,,51228,43.266162,-1.332837,datagouv,64.0
213400278,Beaulieu,Arnaud Moynier,,COM,OCC-76,http://data.montpellier3m.fr/datasets/commune/beaulieu,19,,,,,1778,43.728603,4.020106,ptf,34
200064699,Beaussais-sur-Mer,Eugène Caro,,COM,BRE-53,http://datarmor.cotesdarmor.fr/web/guest/donnees,2,,,,,3556,48.562682,-2.139334,ptf,22
2.16000562E8,Beauvais,Caroline Cayeux,Union pour un mouvement populaire,COM,HDF-32,,,https://www.data.gouv.fr/fr/organizations/587cebc488ee3805cb9b81a4,1,587cebc488ee3805cb9b81a4,,56425,49.433589,2.086266,datagouv,60.0
,,,Rassemblement pour la République,,,,,,,,,,,,,
215600115,Béganne,Bernard Ryo,,COM,BRE-53,https://www.opendata56.fr/explore/?refine.publisher=Ville+de+B%C3%A9ganne,2,,,,Ville de Béganne,1420,47.596024,-2.240177,ptf,56
212200042,Bégard,Vincent Clech,,COM,BRE-53,http://datarmor.cotesdarmor.fr/web/guest/donnees,3,,,,,4752,48.627606,-3.301450,ptf,22
216401059,Béguios,Didier Irigoin,,COM,NAQ-75,,,https://www.data.gouv.fr/fr/organizations/5dcd6e3d634f411cead9eeb8/,2,5dcd6e3d634f411cead9eeb8,,245,43.358627,-1.086947,datagouv,64
2.16201087E8,Berck,Bruno Cousein,,COM,HDF-32,,,https://www.data.gouv.fr/fr/organizations/5f06e7cf3a2888d20686160c/,1,5f06e7cf3a2888d20686160c,,13726,50.410885,1.581080,datagouv,62.0
212400378,Bergerac,Jonathan Prioleaud,,COM,NAQ-75,,,https://www.data.gouv.fr/fr/organizations/5dc4192f8b4c41249cc6a390/,3,5dc4192f8b4c41249cc6a390,,27419,44.853456,0.487531,datagouv,24.0
2.12500565E8,Besançon,Anne Vignot,Europe Écologie Les Verts,COM,BFC-27,https://trouver.ternum-bfc.fr/organization/commune-de-besancon,10,https://www.data.gouv.fr/fr/organizations/539a5b76a3a7293bc272836c/,10,539a5b76a3a7293bc272836c,,116676,47.242200,6.020070,ptf+datagouv,25.0
214400137,Besné,Sylvie Cauchie,,COM,PDL-52,https://data.agglo-carene.fr/explore/?refine.publisher=Besné,1,,,,Besné,2958,47.396900,-2.091820,ptf,44
213100696,Blagnac,Joseph Carles,,COM,OCC-76,https://data.toulouse-metropole.fr/explore/?sort=modified&refine.publisher=Ville+de+Blagnac,76,,,,Ville de Blagnac,22983,43.635000,1.389380,ptf,31
214100182,Blois,Marc Gricourt,Parti socialiste,COM,CVL-24,https://data.blois.agglopolys.fr/pages/accueil/,14,,,,,46086,47.588600,1.337110,ptf,41
214700312,Boé,Pascale Luguet,,COM,NAQ-75,,,https://www.data.gouv.fr/fr/organizations/596ca1ecc751df20cc2b38df,11,596ca1ecc751df20cc2b38df,,5679,44.160556,0.629444,datagouv,47
217700376,Bois-le-Roi,David Dintilhac,,COM,IDF-11,,,https://www.data.gouv.fr/fr/organizations/5e7c7ff9dfaefff40aca1f99/,3,5e7c7ff9dfaefff40aca1f99,,5876,48.477760,2.694077,datagouv,77
2.19400041E8,Boissy-Saint-Léger,Régis Charbonnier,,COM,IDF-11,"https://boissy.data4citizen.com/portail?facet.field=[%22organization%22,%22tags%22,%22theme%22,%22features%22]&rows=10&start=0&fq=organization:(boissy)",4,,,,,15922,48.750000,2.509000,ptf,94.0
219100864,Bondoufle,Jean Hartz,,COM,IDF-11,https://bondoufle-grandparissud.opendatasoft.com,0,,,,,9066,48.614974,2.383537,ptf,91
2.13300635E8,Bordeaux,Alain Juppé,Union pour un mouvement populaire,COM,NAQ-75,https://opendata.bordeaux-metropole.fr/explore/?disjunctive.publisher&disjunctive.frequence&disjunctive.territoire&sort=title&refine.publisher=Ville+de+Bordeaux,62,,,,Ville de Bordeaux,253812,44.837663,-0.579717,ptf,33.0
,,,Rassemblement pour la République,,,,,,,,,,,,,
,,,Les Républicains,,,,,,,,,,,,,
219200128,Boulogne-Billancourt,Pierre-Christophe Baguet,Union pour la démocratie française,COM,IDF-11,https://boulognebillancourt-seineouest.opendatasoft.com/explore/?sort=title&refine.publisher=Ville+de+Boulogne-Billancourt,14,https://www.data.gouv.fr/fr/organizations/54d8f2a4c751df1df7467389,22,54d8f2a4c751df1df7467389,Ville de Boulogne-Billancourt,119127,48.834945,2.241177,ptf+datagouv,92
213500408,Breteil,Isabelle Ozoux,,COM,BRE-53,,,https://www.data.gouv.fr/fr/organizations/5b236d75c751df4eaa3a9b5e/,6,5b236d75c751df4eaa3a9b5e,,3482,48.144700,-1.898540,datagouv,35
217700533,Brie-Comte-Robert,Jean Laviolette,,COM,IDF-11,,,https://www.data.gouv.fr/fr/organizations/5b71455e8b4c41290a9c0450/,1,5b71455e8b4c41290a9c0450,,16635,48.691900,2.610080,datagouv,77
214000564,Brocas,Jean-Luc Blanc-Simon,,COM,NAQ-75,http://opendata.brocaslesforges.fr/project/jeux-donnees/,15,https://www.data.gouv.fr/fr/organizations/534fff65a3a7292c64a77d76,106,534fff65a3a7292c64a77d76,Commune de Brocas,808,44.043403,-0.536020,ptf+datagouv,40
216900290,Bron,Jérémie Breaud,,COM,ARA-84,https://data.grandlyon.com/recherche?responsibleParty.organisationName=Ville%20de%20Bron,4,,,,,40694,45.733753,4.909235,ptf,69
8.52356583E8,Brou-sur-Chantereine,Antonio de Carvalho,,COM,IDF-11,https://brou-sur-chantereine-agglo-pvm.opendata.arcgis.com/,2,,,,,4382,48.885684,2.628900,ptf,77.0
2.16401554E8,Bustince-Iriberry,Henry Inchauspe,,COM,NAQ-75,,,https://www.data.gouv.fr/fr/organizations/5f3400480daf057063028825/,2,5f3400480daf057063028825,,96,43.188229,-1.179966,datagouv,64.0
219400165,Cachan,Jean-Yves Le Bouillonnec,Parti socialiste,COM,IDF-11,https://cachan.opendatasoft.com/explore/?sort=explore.popularity_score&refine.publisher=Ville+de+Cachan,30,,,,,31069,48.794400,2.334250,ptf,94
,,Hélène de Comarmond,,,,,,,,,,,,,,
2.11401187E8,Caen,Joël Bruneau,Union pour un mouvement populaire,COM,NOR-28,,,https://www.data.gouv.fr/fr/organizations/5d9b54b3634f4164bb0bec9d/,5,5d9b54b3634f4164bb0bec9d,,105354,49.181004,-0.369892,datagouv,14.0
215600305,Camoël,Bernard Le Guen,,COM,BRE-53,https://capatlantique-loireatlantique.opendatasoft.com/explore/?refine.publisher=Camoël,2,,,,Camoël,988,47.481600,-2.395320,ptf,56
214900540,Candé,Pascal Crossouard,,COM,PDL-52,https://www.opendata49.fr/index.php?id=38,3,,,,,2937,47.560021,-1.037734,ptf,49
2.16401661E8,Çaro,Robert Garicoitz,,COM,NAQ-75,,,https://www.data.gouv.fr/fr/organizations/5e6622e5634f417ab82d46ec/,2,5e6622e5634f417ab82d46ec,,64166,43.147250,-1.218058,datagouv,64.0
2.13101132E8,Castanet-Tolosan,Xavier Normand,,COM,OCC-76,https://data.laregion.fr/explore/?disjunctive.publisher&sort=modified&refine.publisher=Commune+de+Castanet-Tolosan,1,,,,Castanet-Tolosan,12833,43.517214,1.498080,ptf,31.0
2.13101181E8,Castelnau-d'Estrétefonds,Daniel Dupuy,,COM,OCC-76,https://data.laregion.fr/explore/?disjunctive.publisher&sort=modified&refine.publisher=Commune+de+Castelnau-d%27Estr%C3%A9tefonds,0,,,,Commune de Castelnau-d'Estrétefonds,6334,43.782510,1.359089,ptf,31.0
213400575,Castelnau-le-Lez,Jean-Pierre Grand,Union pour un mouvement populaire,COM,OCC-76,http://data.montpellier3m.fr/datasets/commune/castelnau-le-lez,32,,,,,19886,43.636014,3.900681,ptf,34
,,,Rassemblement pour la République,,,,,,,,,,,,,
,,,Les Républicains,,,,,,,,,,,,,
,,,République solidaire,,,,,,,,,,,,,
211100763,Castelnaudary,Patrick Maugard,,COM,OCC-76,,,https://www.data.gouv.fr/fr/organizations/58d2805b88ee3830ab40dd02,12,58d2805b88ee3830ab40dd02,,11563,43.317984,1.952734,datagouv,11
213400583,Castries,Claudine Vassas Mejri,,COM,OCC-76,http://data.montpellier3m.fr/datasets/commune/castries,26,,,,,6162,43.678515,3.980702,ptf,34
2.13101355E8,Cazères,Michel Oliva,,COM,OCC-76,https://data.laregion.fr/explore/?disjunctive.publisher&sort=modified&refine.publisher=Commune+de+Caz%C3%A8res-sur-Garonne,2,,,,Commune de Cazères-sur-Garonne,4864,43.205679,1.086509,ptf,31.0
217700673,Cesson,Olivier Chaplet,,COM,IDF-11,https://data.ville-cesson.fr/explore/?refine.publisher=Commune+de+Cesson,1,,,,Commune de Cesson,10033,48.562500,2.602680,ptf,77
213500515,Cesson-Sévigné,Jean-Pierre Savignac,,COM,BRE-53,https://data.rennesmetropole.fr/explore/?refine.publisher=Ville+de+Cesson-S%C3%A9vign%C3%A9,11,,,,Ville de Cesson-Sévigné,18095,48.120504,-1.604140,ptf,35
215101015,Châlons-en-Champagne,Benoist Apparu,Union pour un mouvement populaire,COM,GES-44,,,https://www.data.gouv.fr/fr/organizations/5badf0508b4c412b0839e0f4/,1,5badf0508b4c412b0839e0f4,,45268,48.956400,4.364200,datagouv,51
,,,Rassemblement pour la République,,,,,,,,,,,,,
217300656,Chambéry,Michel Dantin,Union pour un mouvement populaire,COM,ARA-84,https://donnees.grandchambery.fr/explore/?refine.publisher=Ville+de+Chamb%C3%A9ry,13,,,,Ville de Chambéry,59697,45.566100,5.919780,ptf,73
,,,Rassemblement pour la République,,,,,,,,,,,,,
216900407,Champagne-au-Mont-d'Or,Véronique Gazan,,COM,ARA-84,https://data.grandlyon.com/recherche?responsibleParty.organisationName=Ville%20de%20Champagne-au-Mont-d%27Or,6,,,,,5526,45.795491,4.789458,ptf,69
217700798,Champagne-sur-Seine,Michel Gonord,,COM,IDF-11,,,https://www.data.gouv.fr/fr/organizations/5846e4ae88ee3811d6c65bb3/,9,5846e4ae88ee3811d6c65bb3,,6179,48.397326,2.800055,datagouv,77
216902718,Chassieu,Jean-Jacques Sellès,,COM,ARA-84,https://data.grandlyon.com/recherche?responsibleParty.organisationName=Ville%20de%20Chassieu,10,,,,,10323,45.744480,4.965418,ptf,69
200064483,Châteaugiron,,,COM,BRE-53,,,https://www.data.gouv.fr/fr/organizations/5dc1b1c08b4c41677012618b/,1,5dc1b1c08b4c41677012618b,,9966,48.042376,-1.500912,datagouv,35
213600448,Châteauroux,Gil Avérous,,COM,CVL-24,https://data.chateauroux-metropole.fr/explore/?sort=title&refine.publisher=VILLE+DE+CHATEAUROUX,10,,,,VILLE DE CHATEAUROUX,43732,46.811700,1.692060,ptf,36
217801463,Chatou,Éric Dumoulin,,COM,IDF-11,,,https://www.data.gouv.fr/fr/organizations/5c9e2bfb634f41255724d4ca/,1,5c9e2bfb634f41255724d4ca,,31058,48.890100,2.155820,datagouv,78
219200227,Chaville,Jean-Jacques Guillet,Union pour un mouvement populaire,COM,IDF-11,https://chaville-seineouest.opendatasoft.com/explore/?sort=title,0,https://www.data.gouv.fr/fr/organizations/5437e8c288ee387cb68f5e87,11,5437e8c288ee387cb68f5e87,,20520,48.809900,2.188290,ptf+datagouv,92
,,Jean-Jacques Guillet,Union pour un mouvement populaire,,,,,,,,,,,,,
216001446,Chelles,,,COM,IDF-11,https://chelles-agglo-pvm.opendata.arcgis.com,4,,,,,54917,48.878380,2.590549,ptf,77
214400400,Chéméré,,,COM,PDL-52,https://data.loire-atlantique.fr/explore/?refine.publisher=Ville+de+Chéméré,4,,,,Ville de Chéméré,2123,47.977334,-0.441579,ptf,44
219400199,Chennevières-sur-Marne,Jean-Pierre Barnaud,,COM,IDF-11,"https://chennevieres.data4citizen.com/portail?facet.field=[%22organization%22,%22tags%22,%22theme%22,%22features%22]&rows=10&start=0&fq=organization:(chennevieres)",5,,,,,18365,48.797768,2.533055,ptf,94
213400773,Clapiers,Éric Penso,,COM,OCC-76,http://data.montpellier3m.fr/datasets/commune/clapiers,36,,,,,5527,43.656820,3.887375,ptf,34
218300424,Cogolin,Marc-Étienne Lansade,Rassemblement national,COM,PAC-93,,,https://www.data.gouv.fr/fr/organizations/5bac7fb68b4c414fe45d8cee/,3,5bac7fb68b4c414fe45d8cee,,12387,43.251900,6.529400,datagouv,83
213101496,Colomiers,Eugène Montel,Section française de l'Internationale ouvrière,COM,OCC-76,https://data.toulouse-metropole.fr/explore/?refine.publisher=Mairie+de+Colomiers,1,,,,Mairie de Colomiers,39266,43.612602,1.335509,ptf,31
,,Alex Raymond,Section française de l'Internationale ouvrière,,,,,,,,,,,,,
,,,Parti socialiste,,,,,,,,,,,,,
2.17701226E8,Combs-la-Ville,Guy Geoffroy,Union pour un mouvement populaire,COM,IDF-11,https://combslaville-grandparissud.opendatasoft.com/explore/?refine.publisher=Mairie+de+Combs-la-Ville,11,,,,Mairie de Combs-la-Ville,22154,48.664600,2.564400,ptf,77.0
,,Guy Geoffroy,Union pour un mouvement populaire,,,,,,,,,,,,,
215901521,Comines,Eric Vanstaen,,COM,HDF-32,,,https://www.data.gouv.fr/fr/organizations/593fb6b788ee3810680f7775,4,593fb6b788ee3810680f7775,,12491,50.760794,3.007073,datagouv,59
217801729,CONFLANS SAINT HONORINE,,,COM,IDF-11,https://data.ville-conflans.fr/login/,0,,,,,35846,48.993879,2.094977,ptf,78
2.17701317E8,Coulommiers,Laurence Picard,,COM,IDF-11,,,https://www.data.gouv.fr/fr/organizations/534fff6ba3a7292c64a77da2,26,534fff6ba3a7292c64a77da2,,15476,48.814839,3.083069,datagouv,77.0
2.17001817E8,Courcuire,,,COM,BFC-27,https://www.databfc.fr/bfc/portail,1,https://www.data.gouv.fr/fr/organizations/5c937c53634f414c0c84251d/,1,5c937c53634f414c0c84251d,,136,47.341700,5.822900,ptf+datagouv,70.0
213400872,Cournonsec,Régine Illaire,,COM,OCC-76,http://data.montpellier3m.fr/datasets/commune/cournonsec,23,,,,,3262,43.548387,3.703853,ptf,34
213400880,Cournonterral,William Ars,,COM,OCC-76,http://data.montpellier3m.fr/datasets/commune/cournonterral,29,,,,,5844,43.557287,3.718809,ptf,34
217701390,Courtry,Xavier Vanderbise,,COM,IDF-11,https://courtry-agglo-pvm.opendata.arcgis.com/search?collection=Dataset,4,https://www.data.gouv.fr/fr/organizations/5ee8ce78f450050a4fa6a1d3/,0,5ee8ce78f450050a4fa6a1d3,,6492,48.915800,2.602480,ptf+datagouv,77
213101579,Cugnaux,Albert Sanchez,,COM,OCC-76,,,https://www.data.gouv.fr/fr/organizations/58d27ed688ee383022f3994b/,1,58d27ed688ee383022f3994b,,17600,43.537116,1.342645,datagouv,31
2.17602176E8,Dieppe,Sébastien Jumel,Parti communiste français,COM,HDF-32,https://opendata.adico.fr/fr/dataset?organization=commune-de-dieppe,9,,,,,29080,49.924618,1.079144,ptf,76.0
210400701,Digne-les-Bains,Patricia Granet,divers gauche,COM,PAC-93,https://trouver.datasud.fr/organization/ville-de-digne-les-bains,100,,,,,17075,44.092343,6.235322,ptf,04
211701404,Dolus-d'Oléron,Thibault Brechkoff,,COM,NAQ-75,,,https://www.data.gouv.fr/fr/organizations/5c8a2eaa8b4c412414de233d/,1,5c8a2eaa8b4c412414de233d,,3270,45.911000,-1.261720,datagouv,17
218801413,Dombrot-sur-Vair,Christophe Vouillon,,COM,GES-44,,,https://www.data.gouv.fr/fr/organizations/5d3708eb634f411ba1f2be68/,2,5d3708eb634f411ba1f2be68,,253,48.265182,5.888463,datagouv,88
218801561,Doncières,Xavier Richard,,COM,GES-44,,,https://www.data.gouv.fr/fr/organizations/5e32a7e86f4441203195aaa3/,4,5e32a7e86f4441203195aaa3,,137,48.394070,6.635632,datagouv,88
214400525,Donges,François Cheneau,,COM,PDL-52,https://data.agglo-carene.fr/explore/?refine.publisher=Donges,3,,,,Donges,7699,47.322700,-2.076810,ptf,44
218300507,Draguignan,Richard Strambio,,COM,PAC-93,,,https://www.data.gouv.fr/fr/organizations/5bfd0fce634f416c97b0b0a9/,1,5bfd0fce634f416c97b0b0a9,,40278,43.538000,6.463510,datagouv,83
212801344,Dreux,Gérard Hamel,Union pour un mouvement populaire,COM,CVL-24,,,https://www.data.gouv.fr/fr/organizations/5a82b75a88ee3827fadf1afb/,1,5a82b75a88ee3827fadf1afb,,30836,48.736225,1.365471,datagouv,28
,,,Rassemblement pour la République,,,,,,,,,,,,,
2.13801517E8,Échirolles,Renzo Sulli,,COM,ARA-84,https://data.metropolegrenoble.fr/ckan/dataset?organization=ville-d-echirolles,3,https://www.data.gouv.fr/fr/organizations/5e296fbc6f44414102ba0b85/,3,5e296fbc6f44414102ba0b85,,36227,45.143700,5.719270,ptf+datagouv,38.0
2.16800789E8,Eguisheim,Claude Centlivre,,COM,GES-44,,,https://www.data.gouv.fr/fr/organizations/5c6ac6e58b4c417067851df5/,1,5c6ac6e58b4c417067851df5,,1734,48.042600,7.305700,datagouv,68.0
217701697,Émerainville,Alain Kelyor,,COM,IDF-11,https://emerainville-agglo-pvm.opendata.arcgis.com/,1,,,,,7720,48.811581,2.621292,ptf,77
215901968,Ennetières-en-Weppes,Jean-Claude Flinois,,COM,HDF-32,https://opendata.lillemetropole.fr/explore/?&refine.publisher=commune+Enneti%C3%A8res+en+Weppes,6,,,,commune Ennetières en Weppes,1302,50.634255,2.940735,ptf,59
216402222,Etchebar,Claude Recalt,,COM,NAQ-75,,,https://www.data.gouv.fr/fr/organizations/5ef5cd7ae1f79fd615a5b369/,2,5ef5cd7ae1f79fd615a5b369,,73,43.082849,-0.893093,datagouv,64
219102258,Étiolles,Philippe Jumelle,,COM,IDF-11,https://etiolles-grandparissud.opendatasoft.com/explore/?sort=modified,0,,,,,3164,48.638067,2.477527,ptf,91
210600599,Èze,Stéphane Cherki,,COM,PAC-93,,,https://www.data.gouv.fr/fr/organizations/5c388d5a8b4c415b415729d7/,1,5c388d5a8b4c415b415729d7,,2343,43.727000,7.360060,datagouv,06
213400955,Fabrègues,Jacques Martinier,,COM,OCC-76,http://data.montpellier3m.fr/datasets/commune/fabr%C3%A8gues,28,,,,,6860,44.949330,2.463360,ptf,34
210700886,Faugères,Michel Di Vuolo,,COM,ARA-84,,,https://www.data.gouv.fr/fr/organizations/57ad996ac751df5e2c97bae5/,5,57ad996ac751df5e2c97bae5,,110,44.730763,4.265219,datagouv,07
214400574,Fégréac,Jérôme Ricordel,,COM,PDL-52,,,https://www.data.gouv.fr/fr/organizations/5bb35a75634f410c19c29451/,1,5bb35a75634f410c19c29451,,2440,47.583900,-2.045660,datagouv,44
215600586,Férel,Nicolas Rivalan,,COM,BRE-53,https://capatlantique-loireatlantique.opendatasoft.com/explore/?refine.publisher=Férel,1,,,,Férel,3151,47.482100,-2.344790,ptf,56
2.14200958E8,Firminy,Julien Luya,,COM,ARA-84,,,https://www.data.gouv.fr/fr/organizations/5d15b4d8634f4151ec5b1550/,1,5d15b4d8634f4151ec5b1550,,14082,45.387700,4.286890,datagouv,42.0
2.11402714E8,Fleury-sur-Orne,Marc Lecerf,,COM,NOR-28,https://data.fleurysurorne.fr/explore/?refine.publisher=Ville+de+Fleury-sur-Orne,43,,,,Ville de Fleury-sur-Orne,4660,49.146078,-0.376572,ptf,14.0
213101843,Flourens,Jean-Pierre Fouchou-Lapeyrade,,COM,OCC-76,https://data.toulouse-metropole.fr/explore/?refine.publisher=Mairie+de+Flourens,1,,,,Mairie de Flourens,1930,43.595145,1.562612,ptf,31
2.13101876E8,Fonsorbes,Françoise Simeon,,COM,OCC-76,https://data.laregion.fr/explore/?disjunctive.publisher&sort=modified&refine.publisher=Commune+de+Fonsorbes,0,,,,Commune de Fonsorbes,11743,43.535327,1.231499,ptf,31.0
2.11300397E8,Fos-sur-Mer,Jean Hetsch,,COM,PAC-93,https://fos-sur-mer.opendatasoft.com/explore/?sort=modified&refine.publisher=Commune+de+Fos-Sur-Mer,4,,,,Commune de Fos-Sur-Mer,15494,43.438071,4.945595,ptf,13.0
218300614,Fréjus,David Rachline,Rassemblement national,COM,PAC-93,https://trouver.datasud.fr/dataset?_organization_limit=0&organization=ville-de-frejus,6,,,,,52672,43.433031,6.736018,ptf,83
216402289,Gabat,Jean-Louis Prebende,,COM,NAQ-75,,,https://www.data.gouv.fr/fr/organizations/5e53e62a634f41661560452d/,2,5e53e62a634f41661560452d,,235,43.369940,-1.036010,datagouv,64
216402297,Gamarthe,Jean-Michel Bicain,,COM,NAQ-75,,,https://www.data.gouv.fr/fr/organizations/5ef5b74d7dd541efb59254fb/,2,5ef5b74d7dd541efb59254fb,,126,43.201751,-1.142448,datagouv,64
213401110,Ganges,Michel Fratissier,,COM,OCC-76,,,https://www.data.gouv.fr/fr/organizations/5c45a5c18b4c4104123ed6d5/,2,5c45a5c18b4c4104123ed6d5,,3950,43.933500,3.707360,datagouv,34
2.19502689E8,Garges-lès-Gonesse,Maurice Lefèvre,,COM,IDF-11,"https://garges.data4citizen.com/portail?facet.field=[%22organization%22,%22tags%22,%22theme%22,%22features%22]&rows=10&start=0&fq=organization:(ville_de_gargeslesgonesse)",2,,,,,42728,48.966667,2.416666,ptf,95.0
213401169,Grabels,René Revol,Parti socialiste,COM,OCC-76,http://data.montpellier3m.fr/datasets/commune/grabels,23,,,,,8027,43.647587,3.801727,ptf,34
,,,Parti de gauche,,,,,,,,,,,,,
,,,La France insoumise,,,,,,,,,,,,,
215002189,Granville,Gilles Ménard,,COM,NOR-28,,,https://www.data.gouv.fr/fr/organizations/5c6ab1d98b4c41356c6fa89a/,0,5c6ab1d98b4c41356c6fa89a,,13175,48.837500,-1.588370,datagouv,50
213801855,Grenoble,Éric Piolle,Europe Écologie Les Verts,COM,ARA-84,http://data.metropolegrenoble.fr/ckan/dataset?organization=grenoble,57,https://www.data.gouv.fr/fr/organizations/5733038988ee38472ed1b934/,59,5733038988ee38472ed1b934,,163357,45.186270,5.725358,ptf+datagouv,38
214400673,Guémené-Penfao,Isabelle Barathon-Bazelle,,COM,PDL-52,,,https://www.data.gouv.fr/fr/organizations/5b8fe384634f414b25ea1d30/,1,5b8fe384634f414b25ea1d30,,5231,47.629800,-1.833880,datagouv,44
214400699,Guérande,Christophe Priou,Union pour un mouvement populaire,COM,PDL-52,https://capatlantique-loireatlantique.opendatasoft.com/explore/?refine.publisher=Guérande,4,,,,Guérande,16294,47.327800,-2.426400,ptf,44
,,,Rassemblement pour la République,,,,,,,,,,,,,
,,Nicolas Criaud,,,,,,,,,,,,,,
215600784,Guidel,Joël Daniel,,COM,BRE-53,https://www.opendata56.fr/explore/?refine.publisher=Ville+de+Guidel,1,,,,Ville de Guidel,11807,47.790533,-3.488826,ptf,56
2.12200703E8,GUINGUAMP,,,COM,BRE-53,http://datarmor.cotesdarmor.fr/web/guest/donnees,11,,,,,7684,48.562340,-3.152203,ptf,22.0
216402552,Halsou,Philippe Masse,,COM,NAQ-75,,,https://www.data.gouv.fr/fr/organizations/5e4fd909634f41282fea1334/,2,5e4fd909634f41282fea1334,,575,43.375550,-1.421383,datagouv,64
214400723,Herbignac,Christelle Chassé,,COM,PDL-52,https://data.paysdelaloire.fr/explore/?disjunctive.diffuseur&disjunctive.gestionnaire&disjunctive.publisher&source=shared&sort=title&refine.publisher=Herbignac,1,,,,Herbignac,6581,47.447263,-2.318167,ptf,44
213501331,Iffendic,Christophe Martins,Parti radical de gauche,COM,BRE-53,,,https://www.data.gouv.fr/fr/organizations/5b32535988ee380dd6e257de/,6,5b32535988ee380dd6e257de,,4456,48.129940,-2.034546,datagouv,35
2.19200409E8,Issy-les-Moulineaux,André Santini,Union pour la démocratie française,COM,IDF-11,https://data.issy.com/explore/?disjunctive.features&disjunctive.theme&disjunctive.keyword&disjunctive.publisher&sort=modified&refine.publisher=Ville+d%27Issy-les-Moulineaux,97,https://www.data.gouv.fr/fr/organizations/534fffb7a3a7292c64a78145,278,534fffb7a3a7292c64a78145,Ville d'Issy-les-Moulineaux,69941,48.822524,2.268598,ptf+datagouv,92.0
211300470,Istres,François Bernardini,Parti socialiste,COM,PAC-93,https://www.istres.fr/index.php?id=618,33,,,,,43086,43.516500,4.989540,ptf,13
2.16402792E8,Itxassou,Michel Hiribarren,,COM,NAQ-75,,,https://www.data.gouv.fr/fr/organizations/5da489756f44414bcf4c45dd/,2,5da489756f44414bcf4c45dd,,2026,43.333453,-1.409074,datagouv,64.0
2.13401201E8,Jacou,Renaud Calvat,,COM,OCC-76,http://data.montpellier3m.fr/datasets/commune/jacou,26,,,,,6881,43.660224,3.910977,ptf,34.0
216402834,Jaxu,Michel Aldacourrou,,COM,NAQ-75,,,https://www.data.gouv.fr/fr/organizations/5e53cddb634f4113415b3a67/,2,5e53cddb634f4113415b3a67,,195,43.197600,-1.193073,datagouv,64
213401235,Juvignac,Jean-Luc Savy,,COM,OCC-76,http://data.montpellier3m.fr/datasets/commune/juvignac,29,,,,,10783,43.612442,3.808667,ptf,34
214400558,La Baule-Escoublac,Franck Louvrier,Les Républicains,COM,PDL-52,https://capatlantique-loireatlantique.opendatasoft.com/explore/?refine.publisher=La+Baule-Escoublac,3,,,,La Baule-Escoublac,15611,47.285000,-2.392780,ptf,44
215901430,La Chapelle-d'Armentières,Damien Braure,,COM,HDF-32,,,https://www.data.gouv.fr/fr/organizations/5b518bb188ee3863608f3fac/,1,5b518bb188ee3863608f3fac,,8459,50.672946,2.896692,datagouv,59
214400301,La Chapelle-des-Marais,Franck Hervy,,COM,PDL-52,https://data.agglo-carene.fr/explore/?refine.publisher=La+Chapelle+des+Marais,2,,,,La Chapelle des Marais,4069,47.447000,-2.242870,ptf,44
210600656,La Gaude,Bruno Bettati,,COM,PAC-93,,,https://www.data.gouv.fr/fr/organizations/5ba9f0bb634f416762d56c0c/,2,5ba9f0bb634f416762d56c0c,,6415,43.721700,7.152150,datagouv,06
2.13502032E8,La Nouaye,Fabienne Bondon,,COM,BRE-53,,,https://www.data.gouv.fr/fr/organizations/5b3495d188ee382f97297bdc/,4,5b3495d188ee382f97297bdc,,366,48.162026,-1.979658,datagouv,35.0
218501914,La Roche-sur-Yon,Luc Bouard,,COM,PDL-52,https://data.larochesuryon.fr/explore/?refine.publisher=Ville+de+la+Roche-sur-Yon,48,,,,Ville de la Roche-sur-Yon,56991,46.669352,-1.428653,ptf,85
211703004,La Rochelle,Maxime Bono,Parti socialiste,COM,NAQ-75,https://opendata.larochelle.fr/dataset/?metakey=dataset_property&metaval=140,374,https://www.data.gouv.fr/fr/organizations/5821930b88ee386862c65bb3/,364,5821930b88ee386862c65bb3,,78358,46.158506,-1.152489,ptf+datagouv,17
218301265,La Seyne-sur-Mer,Nathalie Bicais,,COM,PAC-93,https://opendata.sictiam.fr/fr/organization/mairie-de-la-seyne-sur-mer,1,,,,,64903,43.102929,5.877809,ptf,83
211704523,La Tremblade,Laurence Osta Amigo,,COM,NAQ-75,,,https://www.data.gouv.fr/fr/organizations/5c8a2ec6634f411c5580a72b/,1,5c8a2ec6634f411c5580a72b,,4516,45.769300,-1.142540,datagouv,17
2.12203855E8,La Vicomté-sur-Rance,Alain Brombin,,COM,BRE-53,http://datarmor.cotesdarmor.fr/web/guest/donnees,2,,,,,1078,48.488162,-1.992234,ptf,22.0
2.16402974E8,Lacarre,Jean-Claude Ybargaray,,COM,NAQ-75,,,https://www.data.gouv.fr/fr/organizations/5e737cd7dbab7593c0db3802/,2,5e737cd7dbab7593c0db3802,,174,43.190010,-1.164741,datagouv,64.0
218802585,Lamarche,Daniel Vagne,,COM,GES-44,,,https://www.data.gouv.fr/fr/organizations/5d6629786f444132f99e032c/,2,5d6629786f444132f99e032c,,977,48.068800,5.782200,datagouv,88
212200943,Lancieux,Delphine Briand,,COM,BRE-53,http://datarmor.cotesdarmor.fr/donnees,1,,,,,1512,48.607300,-2.151170,ptf,22
215600982,Lanester,Gilles Carreric,,COM,BRE-53,https://www.opendata56.fr/explore/?refine.publisher=Ville+de+Lanester,8,https://www.data.gouv.fr/fr/organizations/59d6526ac751df274a175d35/,2,59d6526ac751df274a175d35,Ville de Lanester,22638,47.762611,-3.339433,ptf+datagouv,56
212201131,Lannion,Paul Le Bihan,,COM,BRE-53,http://datarmor.cotesdarmor.fr/web/guest/donnees,7,,,,,20815,48.732123,-3.455950,ptf,22
213401292,Lattes,Cyril Meunier,,COM,OCC-76,http://data.montpellier3m.fr/datasets/commune/lattes,28,,,,,16567,43.568464,3.908284,ptf,34
213401342,Lavérune,Roger Caizergues,,COM,OCC-76,http://data.montpellier3m.fr/datasets/commune/lav%C3%A9rune,31,,,,,3211,43.585478,3.804573,ptf,34
219101797,Le Coudray-Montceaux,François Gros,,COM,IDF-11,https://data.coudray-montceaux.fr/explore/?refine.publisher=Mairie+du+Coudray-Montceaux,7,,,,Mairie du Coudray-Montceaux,4818,48.565700,2.485900,ptf,91
213400906,Le Crès,Stéphane Champay,,COM,OCC-76,http://data.montpellier3m.fr/datasets/commune/le-cr%C3%A8s,29,,,,,9343,43.646497,3.938021,ptf,34
214400491,Le Croisic,Michelle Quellard,,COM,PDL-52,https://capatlantique-loireatlantique.opendatasoft.com/explore/?refine.publisher=Le+Croisic,1,,,,Le Croisic,4040,47.292000,-2.511540,ptf,44
217603513,Le Havre,Édouard Philippe,Parti socialiste,COM,NOR-28,https://data.lehavreseinemetropole.fr/#,157,https://www.data.gouv.fr/fr/organizations/5a3a7cd8c751df3092aea45a/,61,5a3a7cd8c751df3092aea45a,,174911,49.493304,0.107396,ptf+datagouv,76
,,,Union pour un mouvement populaire,,,,,,,,,,,,,
,,,Les Républicains,,,,,,,,,,,,,
217201813,Le Mans,Stéphane Le Foll,Parti socialiste,COM,PDL-52,http://www.lemans.fr/citoyen/la-collectivite/lopen-data/les-contenus-en-open-data/,24,,,,,147121,48.003264,0.195522,ptf,72
214702011,Le Passage,Francis Garcia,,COM,NAQ-75,,,https://www.data.gouv.fr/fr/organizations/5ab24b9188ee385d43b29616/,1,5ab24b9188ee385d43b29616,,9607,44.201228,0.602326,datagouv,47
214401200,Le Pellerin,François Brillaud de Laujardière,,COM,PDL-52,https://data.nantesmetropole.fr/explore/?refine.publisher=Le+Pellerin,4,,,,Le Pellerin,5125,47.198407,-1.754058,ptf,44
219400587,Le Perreux-sur-Marne,Christel Royer,,COM,IDF-11,,,https://www.data.gouv.fr/fr/organizations/534fff85a3a7292c64a77ea9,2,534fff85a3a7292c64a77ea9,,34264,48.840832,2.506782,datagouv,94
214401358,Le Pouliguen,Norbert Samama,,COM,PDL-52,https://capatlantique-loireatlantique.opendatasoft.com/explore/?refine.publisher=Le+Pouliguen,1,,,,Le Pouliguen,4455,47.276900,-2.430420,ptf,44
218300986,Le Pradet,Hervé Stassinos,,COM,PAC-93,,,https://www.data.gouv.fr/fr/organizations/58f5d64788ee3847b91e4f32,1,58f5d64788ee3847b91e4f32,,10426,43.105256,6.022873,datagouv,83
219300456,Les Lilas,Daniel Guiraud,Parti socialiste,COM,IDF-11,,,https://www.data.gouv.fr/fr/organizations/534fff86a3a7292c64a77eab,71,534fff86a3a7292c64a77eab,,23110,48.879097,2.416428,datagouv,93
213302433,Libourne,Philippe Buisson,Parti socialiste,COM,NAQ-75,"https://data.libourne.fr/portail?facet.field=[%22organization%22,%22tags%22,%22theme%22,%22features%22]&rows=10&start=0&fq=organization:(la-ville-de-libourne)",19,,,,,24845,44.916111,-0.242700,ptf,33
217702513,Lieusaint,Michel Bisson,,COM,IDF-11,https://data.ville-lieusaint.fr/explore/?sort=title&refine.publisher=Mairie+de+Lieusaint,7,,,,Mairie de Lieusaint,13242,48.631400,2.548110,ptf,77
215903501,Lille,Martine Aubry,Parti socialiste,COM,HDF-32,https://opendata.lillemetropole.fr/explore/?refine.publisher=Ville+de+Lille,28,,,,Ville de Lille,232741,50.631564,3.056440,ptf,59
2.18708501E8,Limoges,Alain Rodet,Parti socialiste,COM,NAQ-75,https://sig-ville-limoges.opendata.arcgis.com,1,https://www.data.gouv.fr/fr/organizations/54acf7fcc751df4851de6536,3,54acf7fcc751df4851de6536,,136059,45.833763,1.260768,ptf+datagouv,87.0
216901165,Limonest,Max Vincent,,COM,ARA-84,https://data.grandlyon.com/recherche?responsibleParty.organisationName=Commune%20de%20Limonest,1,,,,,3583,45.835670,4.770834,ptf,69
2.11403662E8,Lisieux,Sébastien Leclerc,,COM,NOR-28,,,https://www.data.gouv.fr/fr/organizations/57835411c751df7f2ef3855e,13,57835411c751df7f2ef3855e,,21576,49.145244,0.224210,datagouv,14.0
219103405,Lisses,Thierry Lafon,,COM,IDF-11,https://lisses-grandparissud.opendatasoft.com/explore/?sort=modified&refine.publisher=Ville+de+Lisses,2,,,,,7445,48.596001,2.423789,ptf,91
2.19103454E8,Longjumeau,Sandrine Gelot,Les Républicains,COM,IDF-11,,,https://www.data.gouv.fr/fr/organizations/534fff88a3a7292c64a77eb2,13,534fff88a3a7292c64a77eb2,,21949,48.696761,2.294816,datagouv,91.0
215903600,Loos,Anne Voituriez,,COM,HDF-32,https://opendata.lillemetropole.fr/explore/?sort=modified&refine.publisher=Ville+de+Loos,4,,,,Ville de Loos,21442,50.609208,3.016252,ptf,59
215601212,Lorient,Norbert Métairie,Parti socialiste,COM,BRE-53,https://www.opendata56.fr/explore/?disjunctive.publisher&sort=modified&refine.publisher=Ville+de+Lorient,23,https://www.data.gouv.fr/fr/organizations/59e05c6588ee386ef4f4f86d/,25,59e05c6588ee386ef4f4f86d,Ville de Lorient,57567,47.745800,-3.366880,ptf+datagouv,56
212703755,Louviers,François-Xavier Priollaud,,COM,NOR-28,,,https://www.data.gouv.fr/fr/organizations/53806fe2a3a7297e4d35d6c6,3,53806fe2a3a7297e4d35d6c6,,19081,49.214525,1.165051,datagouv,27
216901231,Lyon,Grégory Doucet,Europe Écologie Les Verts,COM,ARA-84,https://data.grandlyon.com/recherche?responsibleParty.organisationName=Ville%20de%20Lyon,16,,,,,30428,45.757900,4.835300,ptf,69
200013704,Mahina,,,COM,PF,,,https://www.data.gouv.fr/fr/organizations/552d6a09c751df1ed737dddb,2,552d6a09c751df1ed737dddb,,14645,-17.511766,-149.504165,datagouv,987
219400470,Mandres-les-Roses,Jean-Claude Perrault,,COM,IDF-11,"https://mandres.data4citizen.com/portail?facet.field=[%22organization%22,%22tags%22,%22theme%22,%22features%22]&rows=10&start=0&fq=organization:(mandres)",7,,,,,4703,48.650100,2.542000,ptf,94
219200474,Marnes-la-Coquette,Christiane Barody-Weiss,,COM,IDF-11,,,https://www.data.gouv.fr/fr/organizations/55094e4cc751df601a882846,9,55094e4cc751df601a882846,,1801,48.830016,2.175860,datagouv,92
211300553,Marseille,Michèle Rubirola,Les Verts,COM,PAC-93,https://trouver.datasud.fr/organization/ville-de-marseille,35,,,,,24609,43.280400,5.380600,ptf,13
,,,Europe Écologie Les Verts,,,,,,,,,,,,,
211300561,Martigues,Gaby Charroux,Parti communiste français,COM,PAC-93,https://trouver.datasud.fr/organization/ville-de-martigues,15,,,,,49938,43.404463,5.047256,ptf,13
2.16205633E8,Mazingarbe,Laurent Poissant,,COM,HDF-32,,,https://www.data.gouv.fr/fr/organizations/5bb345d18b4c414c173fc6a5/,7,5bb345d18b4c414c173fc6a5,,7970,50.472400,2.717280,datagouv,62.0
2.16403758E8,Méharin,Sylvie Betat,,COM,NAQ-75,,,https://www.data.gouv.fr/fr/organizations/5e01d5646f444126973821b0/,2,5e01d5646f444126973821b0,,273,43.333608,-1.144354,datagouv,64.0
216403774,Mendionde,Hervé Damestoy,,COM,NAQ-75,,,https://www.data.gouv.fr/fr/organizations/5ee872e36fbeeabe38b99a11/,2,5ee872e36fbeeabe38b99a11,,844,43.340289,-1.298346,datagouv,64
2.10600839E8,Menton,Jean-Claude Guibal,Union pour un mouvement populaire,COM,PAC-93,https://opendata.sictiam.fr/fr/organization/commune-de-menton,1,,,,,28231,43.774548,7.499260,ptf,6.0
,,,Rassemblement pour la République,,,,,,,,,,,,,
,,,Union pour la démocratie française,,,,,,,,,,,,,
,,,Les Républicains,,,,,,,,,,,,,
213103419,Merville,Chantal Aygat,,COM,OCC-76,https://data.laregion.fr/explore/?disjunctive.publisher&sort=modified&refine.publisher=Commune+de+Merville,1,,,,Commune de Merville,5240,43.721342,1.297866,ptf,31
219200482,Meudon,Denis Larghero,,COM,IDF-11,https://data.meudon.fr/explore/?sort=title&refine.publisher=Ville+de+Meudon,21,https://www.data.gouv.fr/fr/organizations/54d89442c751df1245467389,179,54d89442c751df1245467389,Ville de Meudon,46030,48.807058,2.240221,ptf+datagouv,92
2.13401573E8,Mèze,Henry Fricou,,COM,OCC-76,,,https://www.data.gouv.fr/fr/organizations/5be01ff4634f4154a89ac27d/,4,5be01ff4634f4154a89ac27d,,11537,43.426600,3.604850,datagouv,34.0
2.16902833E8,Mions,Claude Cohen,,COM,ARA-84,https://data.grandlyon.com/recherche?responsibleParty.organisationName=Ville%20de%20Mions,4,,,,,12938,45.663896,4.957098,ptf,69.0
213103450,Miremont,Serge Baurens,,COM,OCC-76,,,https://www.data.gouv.fr/fr/organizations/5d0a0c318b4c4108d1265df6/,2,5d0a0c318b4c4108d1265df6,,2389,43.369282,1.415882,datagouv,31
210102521,Mogneneins,Jean-Pierre Champion,,COM,ARA-84,,,https://www.data.gouv.fr/fr/organizations/5662c125c751df42e605bd61,5,5662c125c751df42e605bd61,,801,46.137981,4.811066,datagouv,01
2.1200163E8,Monacia-d'Aullène,Marc Luciani,,COM,COR-94,,,https://www.data.gouv.fr/fr/organizations/53ae7fc3a3a729709f56d4f4,12,53ae7fc3a3a729709f56d4f4,,532,41.513346,9.011145,datagouv,2A
214001927,Mont-de-Marsan,Geneviève Darrieussecq,Mouvement démocrate,COM,NAQ-75,,,https://www.data.gouv.fr/fr/organizations/5e78cf325926be02a2e7473e/,1,e78cf325926be02a2e7473e,,29554,43.893380,-0.497155,datagouv,40
213401649,Montaud,Joël Raymond,,COM,OCC-76,http://data.montpellier3m.fr/datasets/commune/montaud,15,,,,,996,43.701166,3.949757,ptf,34
212503882,Montbéliard,Marie-Noëlle Biguinet,,COM,BFC-27,,,https://www.data.gouv.fr/fr/organizations/5c00089a8b4c414c75aed250/,3,5c00089a8b4c414c75aed250,,25304,47.508600,6.797080,datagouv,25
2.11702402E8,Montendre,Patrick Giraudeau,,COM,NAQ-75,,,https://www.data.gouv.fr/fr/organizations/5c8a2ea6634f411541dbc634/,1,5c8a2ea6634f411541dbc634,,3210,45.284700,-0.407990,datagouv,17.0
213103757,Montesquieu-Volvestre,Frédéric Bienvenu,,COM,OCC-76,,,https://www.data.gouv.fr/fr/organizations/5d1217448b4c4160c8be2597/,9,5d1217448b4c4160c8be2597,,3080,43.208625,1.230131,datagouv,31
213401698,Montferrier-sur-Lez,Brigitte Devoisselle,,COM,OCC-76,http://data.montpellier3m.fr/datasets/commune/montferrier-sur-lez,23,,,,,3833,43.667865,3.856555,ptf,34
214401036,Montoir-de-Bretagne,Thierry Noguet,,COM,PDL-52,https://data.agglo-carene.fr/explore/?refine.publisher=Montoir+de+Bretagne,2,,,,Montoir de Bretagne,7058,47.327600,-2.150250,ptf,44
213401722,Montpellier,Michaël Delafosse,Parti socialiste,COM,OCC-76,http://data.montpellier3m.fr/datasets/commune/montpellier,105,,,,,282143,43.611024,3.875521,ptf,34
219300480,Montreuil,Patrice Bessac,Parti communiste français,COM,IDF-11,https://data.montreuil.fr/explore/?refine.publisher=Ville+de+Montreuil,91,,,,Ville de Montreuil,108402,48.863800,2.448960,ptf,93
216802249,Mulhouse,Michèle Lutz,Les Républicains,COM,GES-44,https://data.mulhouse-alsace.fr/explore/?refine.publisher=Ville+de+Mulhouse,43,,,,Ville de Mulhouse,111892,47.748451,7.338023,ptf,68
213401797,Murviel-lès-Montpellier,Isabelle Touzard,,COM,OCC-76,http://data.montpellier3m.fr/datasets/commune/murviel-les-montpellier,18,,,,,1928,43.603956,3.736729,ptf,34
215403957,Nancy,Laurent Hénart,Union des démocrates et indépendants,COM,GES-44,,,https://www.data.gouv.fr/fr/organizations/5a210bc888ee382bed1f31db/,5,5a210bc888ee382bed1f31db,,105162,48.692365,6.182711,datagouv,54
,,,Parti radical,,,,,,,,,,,,,
217703263,Nandy,René Réthoré,,COM,IDF-11,https://nandy-grandparissud.opendatasoft.com/explore/?refine.publisher=Mairie+de+Nandy,1,,,,Mairie de Nandy,5910,48.583800,2.566150,ptf,77
219200508,Nanterre,Patrick Jarry,Parti communiste français,COM,IDF-11,http://www.nanterre.fr/1166-donnees-a-telecharger.htm,9,https://www.data.gouv.fr/fr/organizations/58ecb30388ee3855493567c6/,9,58ecb30388ee3855493567c6,,95851,48.890461,2.203544,ptf+datagouv,92
,,Patrick Jarry,Parti communiste français,,,,,,,,,,,,,
214401093,Nantes,Johanna Rolland,Parti socialiste,COM,PDL-52,https://data.nantesmetropole.fr/explore/?refine.publisher=Ville+de+Nantes,147,https://www.data.gouv.fr/fr/organizations/534fffb9a3a7292c64a78159,147,534fffb9a3a7292c64a78159,Ville de Nantes,311479,47.216354,-1.554456,ptf+datagouv,44
215801945,Nevers,Émile Bourgier,,COM,BFC-27,https://www.databfc.fr/bfc/portail,11,https://www.data.gouv.fr/fr/organizations/594be11888ee38743d67051b,12,594be11888ee38743d67051b,,35899,46.992413,3.156585,ptf+datagouv,58
210600888,Nice,Christian Estrosi,Union pour un mouvement populaire,COM,PAC-93,http://opendata.nicecotedazur.org/data/organization/ville-de-nice,82,,,,,346055,43.701875,7.267464,ptf,06
,,,Rassemblement pour la République,,,,,,,,,,,,,
218902781,Noé,Jacques Fouquart,,COM,OCC-76,http://www.mairie-noe.fr?p=4260,7,https://www.data.gouv.fr/fr/organizations/57ea3e8b88ee3877235ff490/,7,57ea3e8b88ee3877235ff490,,548,48.162877,3.402152,datagouv,89
219400520,Nogent-sur-Marne,Jacques J. P. Martin,Rassemblement pour la République,COM,IDF-11,,,https://www.data.gouv.fr/fr/organizations/54ca2b22c751df5273467389,8,54ca2b22c751df5273467389,,31825,48.836231,2.482302,datagouv,94.0
,,,Union des démocrates pour la République,,,,,,,,,,,,,
,,,Union pour un mouvement populaire,,,,,,,,,,,,,
,,,Union pour la nouvelle République,,,,,,,,,,,,,
217703370,Noisiel,Mathieu Viskovic,Parti socialiste,COM,IDF-11,https://noisiel-agglo-pvm.opendata.arcgis.com,4,https://www.data.gouv.fr/fr/organizations/ville-de-noisiel/,1,5c0fb6d3634f416a192f0eb7,,15230,48.854771,2.628814,datagouv,77
200012508,NOUMEA,,,COM,NC,https://data.gouv.nc/explore/?disjunctive.theme&disjunctive.publisher&disjunctive.keyword&disjunctive.attributions&disjunctive.license&sort=explore.popularity_score&refine.publisher=Ville+de+Nouméa,14,,,,,94285,-22.274526,-166.442419,ptf,988
213503642,Noyal-Châtillon-sur-Seiche,Gilles de Bel-Air,,COM,BRE-53,https://data.rennesmetropole.fr/explore/?refine.publisher=Ville+de+Noyal-Ch%C3%A2tillon-sur-Seiche,6,,,,Ville de Noyal-Châtillon-sur-Seiche,7033,48.042672,-1.657856,ptf,35
215601519,Noyal-Pontivy,Lionel Ropert,,COM,BRE-53,https://www.opendata56.fr/explore/?refine.publisher=Ville+de+Noyal-Pontivy,1,https://www.data.gouv.fr/fr/organizations/5a5cb495c751df2cdac7334e/,1,5a5cb495c751df2cdac7334e,Ville de Noyal-Pontivy,3677,48.066230,-2.883026,ptf+datagouv,56
2.17604818E8,Octeville-sur-Mer,Jean-Louis Rousselin,divers droite,COM,NOR-28,https://data.agglo-lehavre.fr,3,,,,,5781,49.555600,0.116329,ptf,76.0
211201769,Onet-le-Château,Jean-Philippe Keroslian,,COM,OCC-76,,,https://www.data.gouv.fr/fr/organizations/5aec4c3e88ee381426c8df86/,7,5aec4c3e88ee381426c8df86,,11944,44.365283,2.593434,datagouv,12
216404293,Orsanco,Jean-Marc Bonzom,,COM,NAQ-75,,,https://www.data.gouv.fr/fr/organizations/5cc19b08634f415e201b269e/,2,5cc19b08634f415e201b269e,,106,43.292500,-1.065740,datagouv,64
2.14401143E8,Orvault,Jean-Sébastien Guitton,,COM,PDL-52,https://data.loire-atlantique.fr/explore/?refine.publisher=Orvault,18,,,,Orvault,26348,47.270413,-1.623962,ptf,44.0
216404350,Osserain-Rivareyte,Arnaud Fontaine,,COM,NAQ-75,,,https://www.data.gouv.fr/fr/organizations/5cacc0838b4c4147790eca6e/,2,5cacc0838b4c4147790eca6e,,211,43.376900,-0.951913,datagouv,64
216802538,Ottmarsheim,Jean-Marie Behe,,COM,GES-44,https://data.mulhouse-alsace.fr/explore/?refine.publisher=Comme+d%27Ottmarsheim,1,,,,Comme d'Ottmarsheim,1784,47.787032,7.509706,ptf,68
217500016,Paris,Anne Hidalgo,Parti socialiste,COM,IDF-11,https://opendata.paris.fr/explore/?sort=modified,276,https://www.data.gouv.fr/fr/organizations/534fff89a3a7292c64a77eb7,451,534fff89a3a7292c64a77eb7,Mairie de Paris*,27501,48.858900,2.346900,ptf+datagouv,75
215601543,Peillac,Philippe Jegou,,COM,BRE-53,,,https://www.data.gouv.fr/fr/organizations/5b7ea6c3634f4119e42b781b/,1,5b7ea6c3634f4119e42b781b,,1861,47.712400,-2.219560,datagouv,56
213401987,Pérols,Jean-Pierre Rico,,COM,OCC-76,http://data.montpellier3m.fr/datasets/commune/p%C3%A9rols,28,,,,,9177,43.564505,3.950294,ptf,34
213303183,Pessac,Franck Raynal,,COM,NAQ-75,https://opendata.bordeaux-metropole.fr/explore/?disjunctive.publisher&disjunctive.frequence&disjunctive.territoire&sort=title&refine.publisher=Ville+de+Pessac,2,,,,Ville de Pessac,61332,44.805830,-0.630386,ptf,33
2.17604974E8,Petit-Couronne,Joël Bigot,,COM,NOR-28,,,https://www.data.gouv.fr/fr/organizations/5b90dc4d634f415369256e17/,5,5b90dc4d634f415369256e17,,8742,49.385000,1.026770,datagouv,76.0
213402027,Pignan,Michelle Cassar,,COM,OCC-76,http://data.montpellier3m.fr/datasets/commune/pignan,27,,,,,6761,43.583991,3.761229,ptf,34
200013746,PIRAE,,,COM,NC,http://www.pirae.pf/opendata/,4,https://www.data.gouv.fr/fr/organizations/56bac12ec751df6c539f9dea,14,56bac12ec751df6c539f9dea,,14659,-17.577745,-149.560211,ptf+datagouv,987
212201719,Plaintel,Vincent Alleno,,COM,BRE-53,http://datarmor.cotesdarmor.fr/web/guest/donnees,2,https://www.data.gouv.fr/fr/organizations/588f0a98c751df12c6ae0a66,2,588f0a98c751df12c6ae0a66,,4378,48.407779,-2.818333,ptf+datagouv,22
212201875,Plérin,Ronan Kerdraon,Parti socialiste,COM,BRE-53,http://datarmor.cotesdarmor.fr/web/guest/donnees,6,https://www.data.gouv.fr/fr/organizations/584ed32c88ee38733fc65bb3,6,584ed32c88ee38733fc65bb3,,14585,48.533663,-2.771207,ptf+datagouv,22
2.14401283E8,Plessé,Aurélie Meziere,,COM,PDL-52,,,https://www.data.gouv.fr/fr/organizations/5a1fde6d88ee384f0ff312b0,1,5a1fde6d88ee384f0ff312b0,,5375,47.541013,-1.887107,datagouv,44.0
219400595,Le Plessis-Trévise,Didier Dousset,,COM,IDF-11,,,https://www.data.gouv.fr/fr/organizations/5bb4ae00634f4155bc71f71f/,11,5bb4ae00634f4155bc71f71f,,20102,48.810500,2.571070,datagouv,94
213502271,Pleumeleuc,Anne-Sophie Patru,,COM,BRE-53,,,https://www.data.gouv.fr/fr/organizations/5b1a788188ee3843648b36b6/,6,5b1a788188ee3843648b36b6,,3177,48.184376,-1.919752,datagouv,35
2.00054252E8,Plœuc-L'Hermitage,Thibaut Guignard,,COM,BRE-53,http://datarmor.cotesdarmor.fr/donnees,1,,,,,4062,48.335236,-2.785004,ptf,22.0
2.12202048E8,Ploëzal,Guy Connan,,COM,BRE-53,http://datarmor.cotesdarmor.fr/web/guest/donnees,5,,,,,1292,48.715789,-3.203027,ptf,22.0
212202154,Ploufragan,Rémy Moulin,,COM,BRE-53,http://datarmor.cotesdarmor.fr/donnees,7,,,,,11346,48.489200,-2.796160,ptf,22
218601946,Poitiers,Alain Claeys,Parti socialiste,COM,NAQ-75,https://data.grandpoitiers.fr/explore/?refine.publisher=Ville+de+Poitiers,44,,,,Ville de Poitiers,90559,46.579729,0.334224,ptf,86
213803174,Le Pont-de-Claix,Christophe Ferrari,Parti socialiste,COM,ARA-84,https://data.metropolegrenoble.fr/ckan/dataset?organization=ville-de-pont-de-claix,3,,,,,10435,45.123684,5.697814,ptf,38
212902209,Pont-l'Abbé,Stéphane Le Doaré,Les Républicains,COM,BRE-53,,,https://www.data.gouv.fr/fr/organizations/58da32bac751df47f26f37b1,2,58da32bac751df47f26f37b1,,8656,47.866742,-4.223134,datagouv,29
217703735,Pontault-Combault,Gilles Bord,,COM,IDF-11,https://opendata.pontault-combault.fr,4,https://www.data.gouv.fr/fr/organizations/ville-de-pontault-combault/,0,5d9461b98b4c414ed95ff89f,,38370,48.800913,2.606806,datagouv,77
214401325,Pornichet,Jean-Claude Pelleteur,,COM,PDL-52,https://data.agglo-carene.fr/explore/?sort=modified&disjunctive.gestionnaire&disjunctive.publisher&disjunctive.theme&disjunctive.keyword&disjunctive.license&disjunctive.features&disjunctive.diffuseur&refine.dcat.spatial=CARENE&disjunctive.dcat.spatial&refine.publisher=Pornichet,1,,,,Pornichet,10323,47.265800,-2.340480,ptf,44
213402175,Prades-le-Lez,Florence Brau,,COM,OCC-76,http://data.montpellier3m.fr/datasets/commune/prades-le-lez,25,,,,,5300,43.698398,3.864453,ptf,34
218301000,Puget-Ville,Catherine Altare,,COM,PAC-93,https://opendata.sictiam.fr/fr/organization/mairie-de-puget-ville,8,,,,,4169,43.289263,6.136040,ptf,83
219200623,Puteaux,Joëlle Ceccaldi-Raynaud,Union pour un mouvement populaire,COM,IDF-11,https://opendata.hauts-de-seine.fr/explore/?sort=modified&refine.publisher=Ville+de+Puteaux,2,,,,Ville de Puteaux,45146,48.884152,2.236886,ptf,92
,,,Rassemblement pour la République,,,,,,,,,,,,,
,,Joëlle Ceccaldi-Raynaud,Union pour un mouvement populaire,,,,,,,,,,,,,
,,,Rassemblement pour la République,,,,,,,,,,,,,
215601865,Quiberon,Patrick Le Roux,,COM,BRE-53,https://www.opendata56.fr/explore/?disjunctive.publisher&sort=modified&refine.publisher=Ville+de+Quiberon,1,https://www.data.gouv.fr/fr/organizations/5dc56e0e8b4c412e7cd726a2/,1,5dc56e0e8b4c412e7cd726a2,Ville+de+Quiberon,4741,47.487400,-3.121520,datagouv,56
217805175,Rambouillet,Marc Robert,,COM,IDF-11,,,https://www.data.gouv.fr/fr/organizations/5c40559d8b4c4151b275a7b0/,7,5c40559d8b4c4151b275a7b0,,25811,48.643600,1.828580,datagouv,78
213502362,Redon,Pascal Duchene,,COM,BRE-53,,,https://www.data.gouv.fr/fr/organizations/5a1e73b0c751df0d9952bd2d,4,5a1e73b0c751df0d9952bd2d,,9844,47.650684,-2.085362,datagouv,35
213502388,Rennes,Nathalie Appéré,Parti socialiste,COM,BRE-53,https://data.rennesmetropole.fr/explore/?refine.publisher=Ville+de+Rennes,145,https://www.data.gouv.fr/fr/organizations/534fffb9a3a7292c64a7815d,40,534fffb9a3a7292c64a7815d,Ville de Rennes,221272,48.113844,-1.681632,ptf+datagouv,35
213402274,Restinclières,Geniès Balazun,,COM,OCC-76,http://data.montpellier3m.fr/datasets/commune/restincli%C3%A8res,13,,,,,1754,43.722974,4.038542,ptf,34
2.1680271E8,Riedisheim,Loïc Richard,,COM,GES-44,https://data.mulhouse-alsace.fr/explore/?refine.publisher=Ville+de+Riedisheim,3,,,,Ville de Riedisheim,12513,47.747409,7.366005,ptf,68.0
216902866,Rillieux-la-Pape,Alexandre Vincendet,,COM,ARA-84,https://data.grandlyon.com/recherche?responsibleParty.organisationName=Ville%20de%20Rillieux-la-Pape,5,https://www.data.gouv.fr/fr/organizations/5d1b06b46f44410e40f553ac/,2,5d1b06b46f44410e40f553ac,,30155,45.820400,4.897270,datagouv,69
219105210,Ris-Orangis,Stéphane Raffalli,,COM,IDF-11,https://risorangis-grandparissud.opendatasoft.com/explore/?sort=modified,5,,,,,29225,48.653875,2.415115,ptf,91
216802785,Rixheim,,,COM,GES-44,https://data.mulhouse-alsace.fr/explore/?refine.publisher=Ville+de+Rixheim,5,,,,Ville de Rixheim,14269,47.747808,7.403461,ptf,68
211202023,Rodez,Christian Teyssèdre,Parti socialiste,COM,OCC-76,https://www.ville-rodez.fr/fr/outils/catalogue-open-data.php,7,https://www.data.gouv.fr/fr/organizations/57ff946788ee384fa45ff490,7,57ff946788ee384fa45ff490,,25956,44.349905,2.573472,ptf+datagouv,12
2.17703909E8,Roissy-en-Brie,François Bouchart,,COM,IDF-11,,,https://www.data.gouv.fr/fr/organizations/roissy-en-brie/,8,,,22994,48.790378,2.654519,datagouv,77.0
,,François Bouchart,,,,,,,,,,,,,,
210601043,Roquebrune-Cap-Martin,Patrick Cesari,,COM,PAC-93,https://opendata.sictiam.fr/fr/organization/mairie-de-roquebrune-cap-martin,3,,,,,12679,43.756653,7.037955,ptf,06
213104581,Roques,Sylvain Mabire,,COM,OCC-76,https://data.laregion.fr/explore/?disjunctive.publisher&sort=modified&refine.publisher=Commune+de+Roques,2,,,,Commune de Roques,4469,43.510904,1.375507,ptf,31
212902399,Roscoff,Joseph Seité,,COM,BRE-53,,,https://www.data.gouv.fr/fr/organizations/5ab12b6ec751df128414f914/,3,5ab12b6ec751df128414f914,,3354,48.725680,-3.985908,datagouv,29
2.19300647E8,Rosny-sous-Bois,Claude Capillon,Union pour un mouvement populaire,COM,IDF-11,,,https://www.data.gouv.fr/fr/organizations/5b28f5b288ee38047e62143e/,6,5b28f5b288ee38047e62143e,,44728,48.873100,2.484660,datagouv,93.0
215905126,Roubaix,Guillaume Delbar,,COM,HDF-32,https://opendata.roubaix.fr/explore/?refine.publisher=Ville+de+Roubaix,104,https://www.data.gouv.fr/fr/organizations/5be53f55634f4119ca26ec72/,127,5be53f55634f4119ca26ec72,Ville de Roubaix,96647,50.688881,3.179402,ptf+datagouv,59
219200631,Rueil-Malmaison,Patrick Ollier,Union pour un mouvement populaire,COM,IDF-11,https://opendata.hauts-de-seine.fr/explore/?sort=modified&refine.publisher=Ville+de+Rueil-Malmaison,23,,,,Ville de Rueil-Malmaison,78152,48.877780,2.180283,ptf,92
,,,Rassemblement pour la République,,,,,,,,,,,,,
,,Patrick Ollier,Union pour un mouvement populaire,,,,,,,,,,,,,
,,,Rassemblement pour la République,,,,,,,,,,,,,
213303662,Saint-André-de-Cubzac,Célia Monseigne,,COM,NAQ-75,,,https://www.data.gouv.fr/fr/organizations/534fff66a3a7292c64a77d79,1,534fff66a3a7292c64a77d79,,11000,44.994197,-0.446196,datagouv,33
214401515,Saint-André-des-Eaux,Catherine Lungart,,COM,PDL-52,https://data.agglo-carene.fr/explore/?refine.publisher=Saint-André+des+Eaux,2,,,,Saint-André des Eaux,6386,47.313400,-2.310930,ptf,44
212105407,Saint-Apollinaire,Rémi Delatte,Union pour un mouvement populaire,COM,BFC-27,https://www.databfc.fr/bfc/portail,1,https://www.data.gouv.fr/fr/organizations/5aec1fe488ee384cbcf3befe/,1,5aec1fe488ee384cbcf3befe,,7353,47.331253,5.083119,ptf+datagouv,21
215602061,Saint-Avé,Anne Gallo,,COM,BRE-53,https://www.opendata56.fr/explore/?refine.publisher=Ville+de+Saint-Av%C3%A9,7,https://www.data.gouv.fr/fr/organizations/5aa79c9fc751df144f78f40c/,6,5aa79c9fc751df144f78f40c,Ville de Saint-Avé,11437,47.686410,-2.735448,ptf+datagouv,56
216303230,Saint-Bonnet-le-Bourg,Véronique Hauville,,COM,ARA-84,,,https://www.data.gouv.fr/fr/organizations/5c59b6498b4c4157a35c3880/,1,5c59b6498b4c4157a35c3880,,154,45.434000,3.607510,datagouv,63
2.13002371E8,Saint-Brès,Jean-Pierre Charpentier,,COM,OCC-76,http://data.montpellier3m.fr/datasets/commune/saint-br%C3%A8s,16,,,,,665,43.665575,4.020099,ptf,30.0
212202782,Saint-Brieuc,Hervé Guihard,,COM,BRE-53,http://datarmor.cotesdarmor.fr/web/guest/donnees,9,,,,,47166,48.513421,-2.760831,ptf,22
213904782,Saint-Claude,Jean-Louis Millet,,COM,BFC-27,https://www.databfc.fr/bfc/portail,7,https://www.data.gouv.fr/fr/organizations/5b06810bc751df6e997fd802/,13,5b06810bc751df6e997fd802,,9732,46.386700,5.862080,ptf+datagouv,39
2.16901918E8,Saint-Cyr-au-Mont-d'Or,Patrick Guillot,,COM,ARA-84,https://data.grandlyon.com/recherche?responsibleParty.organisationName=Ville%20de%20Saint-Cyr-au-Mont-d%27Or,4,,,,,5513,45.815655,4.817596,ptf,69.0
218301125,Saint-Cyr-sur-Mer,Philippe Barthelemy,,COM,PAC-93,,,https://www.data.gouv.fr/fr/organizations/5c4973cf8b4c410839f61188/,1,5c4973cf8b4c410839f61188,,12103,43.182900,5.708370,datagouv,83
219740115,Saint-Denis,Gilbert Annette,Parti socialiste,COM,RE-04,http://opendata-sig.saintdenis.re/datasets,54,https://www.data.gouv.fr/fr/organizations/5c050cfb8b4c413be36cb1c3/,48,5c050cfb8b4c413be36cb1c3,,146985,-20.880900,55.449300,ptf+datagouv,974
2.16901942E8,Saint-Didier-au-Mont-d'Or,Marie-Hélène Mathieu,,COM,ARA-84,https://data.grandlyon.com/recherche?responsibleParty.organisationName=Ville%20de%20Saint-Didier-au-Mont-d%27Or,6,,,,,6785,45.811515,4.797935,ptf,69.0
2.13402498E8,Saint-Drézéry,Jackie Galabrun-Boulbes,,COM,OCC-76,http://data.montpellier3m.fr/datasets/commune/saint-dr%C3%A9z%C3%A9ry,21,,,,,2365,43.733401,3.981642,ptf,34.0
213803828,Saint-Égrève,Laurent Amadieu,,COM,ARA-84,http://data.metropolegrenoble.fr/ckan/dataset?organization=ville-de-saint-egreve,10,https://www.data.gouv.fr/fr/organizations/5c002da8634f4111d7393309/,10,5c002da8634f4111d7393309,,16029,45.231475,5.681665,ptf+datagouv,38
216404764,Saint-Esteben,Régine Larranda,,COM,NAQ-75,,,https://www.data.gouv.fr/fr/organizations/5ddfeff56f44411ac532190f/,2,5ddfeff56f44411ac532190f,,411,43.339151,-1.208745,datagouv,64
216404772,Saint-Étienne-de-Baïgorry,Jean-Michel Coscarat,,COM,NAQ-75,,,https://www.data.gouv.fr/fr/organizations/5e81f70c1dd3db2b3165ec8d/,2,5e81f70c1dd3db2b3165ec8d,,1531,43.175120,-1.347210,datagouv,64
213402563,Saint-Geniès-des-Mourgues,Yvon Pellet,,COM,OCC-76,http://data.montpellier3m.fr/datasets/commune/saint-geni%C3%A8s-des-mourgues,19,,,,,1884,43.696904,4.035589,ptf,34
213402597,Saint-Georges-d'Orques,Jean-François Audrin,,COM,OCC-76,http://data.montpellier3m.fr/datasets/commune/saint-georges-dorques,21,,,,,5498,43.609951,3.780149,ptf,34
211703335,Saint-Georges-de-Didonne,François Richaud,,COM,NAQ-75,,,https://www.data.gouv.fr/fr/organizations/5c8a2ec7634f411c56990637/,1,5c8a2ec7634f411c56990637,,5268,45.605000,-0.999222,datagouv,17
217805514,Saint-Germain-en-Laye,,,COM,IDF-11,,,https://www.data.gouv.fr/fr/organizations/5d123361634f4145bb4131c8/,5,5d123361634f4145bb4131c8,,39982,48.895900,2.090250,datagouv,78
213502776,Saint-Gonlay,Loïc Boisgerault,,COM,BRE-53,,,https://www.data.gouv.fr/fr/organizations/5b3494ef88ee382f8e126555/,4,5b3494ef88ee382f8e126555,,346,48.112338,-2.066529,datagouv,35
2.13502818E8,Saint-Jacques-de-la-Lande,Marie Ducamin,Parti socialiste,COM,BRE-53,https://data.rennesmetropole.fr/explore/?refine.publisher=Ville+de+Saint-Jacques+de+la+Lande,11,,,,Ville de Saint-Jacques de la Lande,12759,48.090693,-1.697072,ptf,35.0
213402704,Saint-Jean-de-Védas,François Rio,,COM,OCC-76,http://data.montpellier3m.fr/datasets/commune/saint-jean-de-vedas,23,,,,,9233,43.576342,3.823010,ptf,34
214401689,Saint-Joachim,Raphaël Salaün,,COM,PDL-52,https://data.agglo-carene.fr/explore/?refine.publisher=Saint-Joachim,2,,,,Saint-Joachim,3934,47.382200,-2.200260,ptf,44
218804219,Saint-Julien,Nicolas Grandclaude,,COM,GES-44,,,https://www.data.gouv.fr/fr/organizations/5e1708dd634f416746ce7892/,2,5e1708dd634f416746ce7892,,115,48.019390,5.895249,datagouv,88
211703517,Saint-Just-Luzac,Ghislaine Le Rocheleuil,,COM,NAQ-75,,,https://www.data.gouv.fr/fr/organizations/5c8a2e8e634f4118ee8aeee2/,1,5c8a2e8e634f4118ee8aeee2,,1984,45.801100,-1.037930,datagouv,17
216902882,Saint-Laurent-de-Mure,Patrick Fiorini,,COM,ARA-84,,,https://www.data.gouv.fr/fr/organizations/5ae1cc2588ee385be7b19c67/,2,5ae1cc2588ee385be7b19c67,,5391,45.685427,5.044287,datagouv,69
213304330,Saint-Loubès,Emmanuelle Favre,,COM,NAQ-75,,,https://www.data.gouv.fr/fr/organizations/5c6686958b4c4112712e3f6c/,1,5c6686958b4c4112712e3f6c,,9066,44.916300,-0.428727,datagouv,33
213502883,Saint-Malo,Claude Renoult,divers droite,COM,BRE-53,https://data.stmalo-agglomeration.fr/explore/?refine.publisher=Ville+de+Saint-Malo,53,https://www.data.gouv.fr/fr/organizations/53ba4599a3a729219b7beaca,50,53ba4599a3a729219b7beaca,Ville de Saint-Malo,47318,48.646653,-2.009511,ptf+datagouv,35
2.14401762E8,Saint-Malo-de-Guersac,Jean-Michel Crand,,COM,PDL-52,https://data.agglo-carene.fr/explore/?refine.publisher=Saint+Malo+de+Guersac,2,,,,Saint Malo de Guersac,3181,47.350600,-2.180330,ptf,44.0
219400678,Saint-Mandé,Julien Weil,,COM,IDF-11,https://saintmande.opendatasoft.com/explore/?refine.publisher=Ville+de+Saint-Mand%C3%A9,3,,,,Ville de Saint-Mandé,22275,48.840434,2.418223,ptf,94
217104454,Saint-Marcel,Raymond Burdin,,COM,BFC-27,https://www.databfc.fr/bfc/portail,1,https://www.data.gouv.fr/fr/organizations/5bab855f634f417eb0f01da8/,3,5bab855f634f417eb0f01da8,,5979,46.775300,4.888720,ptf+datagouv,71
213804214,Saint-Martin-d'Hères,David Queiros,,COM,ARA-84,https://data.metropolegrenoble.fr/ckan/dataset?organization=ville-de-saintmartindheres,14,https://www.data.gouv.fr/fr/organizations/5e2972146f444147e0a30177/,13,5e2972146f444147e0a30177,,38487,45.164520,5.768213,ptf+datagouv,38
219400686,Saint-Maur-des-Fossés,Sylvain Berrios,Union pour un mouvement populaire,COM,IDF-11,,,https://www.data.gouv.fr/fr/organizations/534fffada3a7292c64a780f9,1,534fffada3a7292c64a780f9,,76076,48.802069,2.485364,datagouv,94
214401838,Saint-Molf,Hubert Delorme,,COM,PDL-52,https://capatlantique-loireatlantique.opendatasoft.com/explore/?refine.publisher=Saint+Molf,1,,,,Saint Molf,2499,47.390800,-2.426030,ptf,44
214401846,Saint-Nazaire,David Samzun,Parti socialiste,COM,PDL-52,https://data.agglo-carene.fr/explore/?refine.publisher=Saint-Nazaire,13,,,,Saint-Nazaire,72333,47.278900,-2.210530,ptf,44
214401853,Saint-Nicolas-de-Redon,Albert Guihard,,COM,PDL-52,,,https://www.data.gouv.fr/fr/organizations/5a2023c388ee383e1dea3b3f,1,5a2023c388ee383e1dea3b3f,,3225,47.643352,-2.067312,datagouv,44
2.11703806E8,Saint-Palais-sur-Mer,Claude Baudin,,COM,NAQ-75,,,https://www.data.gouv.fr/fr/organizations/5c8a2e8f8b4c41248f2542f5/,1,5c8a2e8f8b4c41248f2542f5,,3875,45.643200,-1.089400,datagouv,17.0
2.14002792E8,Saint-Paul-lès-Dax,Julien Bazus,,COM,NAQ-75,,,https://www.data.gouv.fr/fr/organizations/5c6303468b4c414d6ae2ebcd/,45,5c6303468b4c414d6ae2ebcd,,13489,43.725400,-1.053020,datagouv,40.0
215602327,Saint-Perreux,Lionel Jouneau,,COM,BRE-53,https://www.opendata56.fr/explore/?refine.publisher=Ville+de+Saint-Perreux,2,,,,Ville de Saint-Perreux,1249,47.668618,-2.108439,ptf,56
214002818,Saint-Pierre-du-Mont,Joël Bonnet,,COM,NAQ-75,https://www.pigma.org/datanouvelleaquitaine/dataset?organization=commune_de_saint_pierre_du_mont,3,,,,,9561,49.387496,-0.977290,ptf,40
216902908,Saint-Priest,Gilles Gascon,,COM,ARA-84,https://data.grandlyon.com/recherche?responsibleParty.organisationName=Ville%20de%20Saint-Priest,1,,,,,45097,45.696535,4.944164,ptf,69
210206660,Saint-Quentin,Xavier Bertrand,Union pour un mouvement populaire,COM,HDF-32,http://open-data.saint-quentin-numerique.fr/datasets,68,https://www.data.gouv.fr/fr/organizations/534fffaea3a7292c64a780fb,32,534fffaea3a7292c64a780fb,,57232,49.847362,3.284810,ptf+datagouv,02
,,,Rassemblement pour la République,,,,,,,,,,,,,
,,,Les Républicains,,,,,,,,,,,,,
,,Frédérique Macarez,Les Républicains,,,,,,,,,,,,,
215602392,Saint-Vincent-sur-Oust,,,COM,BRE-53,,,https://www.data.gouv.fr/fr/organizations/5b90de3c8b4c412516d5511f/,3,5b90de3c8b4c412516d5511f,,1446,47.699400,-2.147470,datagouv,56
217605526,Sainte-Adresse,Patrice Gélard,Union pour un mouvement populaire,COM,NOR-28,,,https://www.data.gouv.fr/fr/organizations/5b110a9788ee38208c6bc159/,1,5b110a9788ee38208c6bc159,,7368,49.506214,0.083191,datagouv,76
,,,Rassemblement pour la République,,,,,,,,,,,,,
213502941,Sainte-Marie,Françoise Boussekey,,COM,BRE-53,,,https://www.data.gouv.fr/fr/organizations/5b90e0238b4c4126f11c4e06/,1,5b90e0238b4c4126f11c4e06,,2259,47.693100,-2.001250,datagouv,35
212405203,Sarlat-la-Canéda,Jean-Jacques de Peretti,Rassemblement pour la République,COM,NAQ-75,,,https://www.data.gouv.fr/fr/organizations/534fffaea3a7292c64a780fe,12,534fffaea3a7292c64a780fe,,10047,44.889174,1.216560,datagouv,24
213402951,Saussan,Joël Vera,,COM,OCC-76,http://data.montpellier3m.fr/datasets/commune/saussan,20,,,,,1518,43.570408,3.773424,ptf,34
217704451,Savigny-le-Temple,Marie-Line Pichery,,COM,IDF-11,https://data.savigny-le-temple.fr/explore/?refine.publisher=Ville+de+Savigny-le-Temple,4,,,,Ville de Savigny-le-Temple,30260,48.596100,2.579210,ptf,77
219200714,Sceaux,Philippe Laurent,Union pour la démocratie française,COM,IDF-11,https://opendata.hauts-de-seine.fr/explore/?sort=modified&refine.publisher=Ville+de+Sceaux,2,,,,Ville de Sceaux,19986,48.777700,2.289640,ptf,92
,,Philippe Laurent,Union pour la démocratie française,,,,,,,,,,,,,
213105414,Seilh,Didier Castera,,COM,OCC-76,https://data.toulouse-metropole.fr/explore/?refine.publisher=Mairie+de+Seilh,1,,,,Mairie de Seilh,3264,43.693868,1.352994,ptf,31
215602434,Séné,Sylvie Sculo,,COM,BRE-53,https://www.opendata56.fr/explore/?disjunctive.publisher&sort=modified&refine.publisher=Ville+de+Séné,2,,,,Ville de Séné,8943,47.619500,-2.737590,ptf,56
213403017,Sète,François Commeinhes,Union pour un mouvement populaire,COM,OCC-76,http://opendata.agglopole.fr,27,,,,,44136,43.404483,3.695924,ptf,34
,,,Les Républicains,,,,,,,,,,,,,
219200722,Sèvres,François Kosciusko-Morizet,Union pour un mouvement populaire,COM,IDF-11,https://sevres-seineouest.opendatasoft.com/explore/?disjunctive.theme&disjunctive.keyword&sort=modified&refine.publisher=Sèvres,13,https://www.data.gouv.fr/fr/organizations/549971c8c751df352b04805a,20,549971c8c751df352b04805a,Sèvres,23718,48.822152,2.210036,ptf+datagouv,92
213503287,Sixt-sur-Aff,René Riaud,,COM,BRE-53,,,https://www.data.gouv.fr/fr/organizations/5baa0e468b4c414416b6f7b2/,26,5baa0e468b4c414416b6f7b2,,2097,47.775400,-2.078570,datagouv,35
210206959,Soissons,Alain Cremont,,COM,HDF-32,https://data.ville-soissons.fr/explore/?disjunctive.theme&sort=explore.popularity_score&refine.publisher=Ville+de+Soissons+,33,,,,Ville de Soissons,28309,49.380900,3.322160,ptf,02
216405274,Souraïde,Thierry Sansberro,,COM,NAQ-75,,,https://www.data.gouv.fr/fr/organizations/5e7b6f13661ad9e52e80b633/,2,5e7b6f13661ad9e52e80b633,,1392,43.340900,-1.473000,datagouv,64
211603741,Soyaux,François Nebout,,COM,NAQ-75,,,https://www.data.gouv.fr/fr/organizations/5b39e30a88ee38056c569d48/,2,5b39e30a88ee38056c569d48,,9295,45.640266,0.197060,datagouv,16
219400710,Sucy-en-Brie,Marie-Carole Ciuntu,,COM,IDF-11,"https://sucy.data4citizen.com/portail?facet.field=[%22organization%22,%22tags%22,%22theme%22,%22features%22]&rows=10&start=0&fq=organization:(sucy)",7,,,,,26264,48.770900,2.523600,ptf,94
219200730,Suresnes,Christian Dupuy,Union pour un mouvement populaire,COM,IDF-11,https://opendata.hauts-de-seine.fr/explore/?refine.publisher=Ville+de+Suresnes,22,,,,Ville de Suresnes,49113,48.870829,2.227021,ptf,92
,,,Rassemblement pour la République,,,,,,,,,,,,,
,,Christian Dupuy,Union pour un mouvement populaire,,,,,,,,,,,,,
,,,Rassemblement pour la République,,,,,,,,,,,,,
213403074,Sussargues,Eliane Lloret,,COM,OCC-76,http://data.montpellier3m.fr/datasets/commune/sussargues,21,,,,,2768,43.711625,4.001118,ptf,34
212106173,Talant,Fabian Ruinet,,COM,BFC-27,https://www.databfc.fr/bfc/portail,3,https://www.data.gouv.fr/fr/organizations/5b3ddb3488ee3819894581db/,3,5b3ddb3488ee3819894581db,,11439,47.336227,5.005154,ptf+datagouv,21
213305220,Talence,Alain Cazabonne,Union pour la démocratie française,COM,NAQ-75,https://opendata.bordeaux-metropole.fr/explore/?disjunctive.publisher&disjunctive.frequence&disjunctive.territoire&sort=title&refine.publisher=Ville+de+Talence,8,,,,Ville de Talence,42171,44.802614,-0.588054,ptf,33
213503311,Talensac,Armand Bohuon,,COM,BRE-53,,,https://www.data.gouv.fr/fr/organizations/5b1e91b3c751df2840ab5ca5/,6,5b1e91b3c751df2840ab5ca5,,2542,48.108377,-1.926135,datagouv,35
2.16504407E8,Tarbes,Gérard Trémège,Parti radical,COM,OCC-76,https://opendata.ha-py.fr/pages/mairie-de-tarbes/,2,,,,,41518,43.232858,0.078102,ptf,65.0
,,,Union pour un mouvement populaire,,,,,,,,,,,,,
213503345,Thorigné-Fouillard,Gaël Lefeuvre,,COM,BRE-53,https://data.rennesmetropole.fr/explore/?sort=modified&refine.publisher=Ville+de+Thorigné-Fouillard,6,,,,Ville de Tourigné-Fouillard,8381,48.159300,-1.580580,ptf,35
2.17704683E8,Torcy,Guillaume Le Lay-Felzine,,COM,IDF-11,https://torcy-agglo-pvm.opendata.arcgis.com/,2,,,,,22568,48.851500,2.652650,ptf,77.0
213105554,Toulouse,Jean-Luc Moudenc,Union pour un mouvement populaire,COM,OCC-76,https://data.toulouse-metropole.fr/explore/?refine.publisher=Mairie+de+Toulouse,213,https://www.data.gouv.fr/fr/organizations/534fff8aa3a7292c64a77ecd,49,534fff8aa3a7292c64a77ecd,Mairie de Toulouse + Ville de Toulouse*,479638,43.604268,1.441019,ptf+datagouv,31
215905993,Tourcoing,Didier Droart,,COM,HDF-32,https://opendata.lillemetropole.fr/explore/?refine.publisher=Ville+de+Tourcoing,1,,,,Ville de Tourcoing,96809,50.722109,3.159731,ptf,59
212203608,Trégueux,Christine Metois,,COM,BRE-53,http://datarmor.cotesdarmor.fr/web/guest/donnees,1,,,,,8584,48.490113,-2.739271,ptf,22
2.14402109E8,Trignac,Claude Aufort,,COM,PDL-52,https://data.agglo-carene.fr/explore/?disjunctive.publisher&disjunctive.gestionnaire&disjunctive.theme&disjunctive.keyword&disjunctive.license&disjunctive.features&disjunctive.diffuseur&disjunctive.dcat.spatial&source=shared&sort=modified&geonav=world%2Fworld_fr%2Ffr_40_52%2Ffr_60_44%2Ffr_72_244400644&refine.publisher=Trignac,0,,,,Trignac,7868,47.317694,-2.189493,ptf,44.0
213805179,Tullins,Gérald Cantournet,,COM,ARA-84,,,https://www.data.gouv.fr/fr/organizations/5c61a7448b4c410deeac953d/,1,5c61a7448b4c410deeac953d,,7655,45.297300,5.483150,datagouv,38
219200755,Vanves,Bernard Gauducheau,Union pour la démocratie française,COM,IDF-11,https://vanves-seineouest.opendatasoft.com/explore/?sort=records_count&refine.publisher=Vanves,1,https://www.data.gouv.fr/fr/organizations/54884a24c751df7226a3fc16,14,54884a24c751df7226a3fc16,Vanves,28139,48.819941,2.287702,ptf+datagouv,92
,,,Les Centristes,,,,,,,,,,,,,
,,,Force européenne démocrate,,,,,,,,,,,,,
219106317,Varennes-Jarcy,Jean-Marc Jubault,,COM,IDF-11,,,https://www.data.gouv.fr/fr/organizations/5c2f5acc634f4124ff9f6ba2/,1,5c2f5acc634f4124ff9f6ba2,,2315,48.677300,2.558580,datagouv,91
216902569,Vaulx-en-Velin,Hélène Geoffroy,Parti socialiste,COM,ARA-84,https://data.grandlyon.com/recherche?responsibleParty.organisationName=Ville%20de%20Vaulx-en-Velin,6,,,,,49658,45.778426,4.920615,ptf,69
2.13403272E8,Vendargues,Guy Lauret,,COM,OCC-76,http://data.montpellier3m.fr/datasets/commune/vendargues,27,,,,,6247,43.657022,3.969179,ptf,34.0
219200771,Ville-d'Avray,Denis Badré,Union pour la démocratie française,COM,IDF-11,https://villedavray-seineouest.opendatasoft.com/explore/?sort=records_count&refine.publisher=Mairie+de+Ville-d%27Avray,3,https://www.data.gouv.fr/fr/organizations/548b19c6c751df1e6e4120e7,14,548b19c6c751df1e6e4120e7,Mairie de Ville-d'Avray,11703,48.827560,2.188950,ptf+datagouv,92
,,Aline de Marcillac,,,,,,,,,,,,,,
210601597,Villefranche-sur-Mer,Christophe Trojani,,COM,PAC-93,https://opendata.sictiam.fr/fr/dataset?_organization_limit=0&organization=mairie-de-villefranche-sur-mer,1,,,,,5443,43.703800,7.311080,ptf,06
219300779,Villemomble,Patrice Calmejane,Union pour un mouvement populaire,COM,IDF-11,,,https://www.data.gouv.fr/fr/organizations/534fffbaa3a7292c64a78162,10,534fffbaa3a7292c64a78162,,30046,48.890310,2.510404,datagouv,93
,,,Rassemblement pour la République,,,,,,,,,,,,,
215900093,Villeneuve-d'Ascq,Gérard Caudron,divers gauche,COM,HDF-32,https://opendata.lillemetropole.fr/explore/?refine.publisher=Ville+de+Villeneuve+d%27Ascq,7,,,,Ville de Villeneuve d'Ascq,62699,50.618944,3.131190,ptf,59
2.13403371E8,Villeneuve-lès-Maguelone,Véronique Negret,,COM,OCC-76,http://data.montpellier3m.fr/datasets/commune/villeneuve-les-maguelone,29,,,,,9744,43.531960,3.860712,ptf,34.0
210601613,Villeneuve-Loubet,Lionnel Luca,Rassemblement pour la République,COM,PAC-93,https://opendata.sictiam.fr/fr/organization/mairie-de-villeneuve-loubet,2,,,,,14266,43.657900,7.121460,ptf,06
,,,Union pour un mouvement populaire,,,,,,,,,,,,,
216902668,Villeurbanne,Cédric Van Styvendael,,COM,ARA-84,https://data.grandlyon.com/recherche?responsibleParty.organisationName=Ville%20de%20Villeurbanne,3,,,,,147712,45.773312,4.886899,ptf,69
,,Jean-Paul Bret,Parti socialiste,,,,,,,,,,,,,
,,Gilbert Chabroux,Parti socialiste,,,,,,,,,,,,,
,,Raymond Terracher,Parti socialiste,,,,,,,,,,,,,
,,Charles Hernu,Parti socialiste,,,,,,,,,,,,,
,,,"Parti républicain, radical et radical-socialiste",,,,,,,,,,,,,
,,,Parti socialiste unifié,,,,,,,,,,,,,
219506805,Villiers-le-Bel,Jean-Louis Marsac,,COM,IDF-11,,,https://www.data.gouv.fr/fr/organizations/5965d3a888ee3839fc58d95e/,3,5965d3a888ee3839fc58d95e,,27564,49.008456,2.389003,datagouv,95
219400801,Vincennes,Charlotte Libert,,COM,IDF-11,,,https://www.data.gouv.fr/fr/organizations/5bc75fbe8b4c417d0a07c480/,8,5bc75fbe8b4c417d0a07c480,,49461,48.847900,2.439680,datagouv,94
215906363,Wambrechies,Sébastien Brogniart,,COM,HDF-32,,,https://www.data.gouv.fr/fr/organizations/5bd875ac634f41794e19695f/,5,5bd875ac634f41794e19695f,,10162,50.687500,3.053540,datagouv,59
216803759,Wittelsheim,Yves Goepfert,,COM,GES-44,https://data.mulhouse-alsace.fr/explore/?refine.publisher=Ville+de+Wittelsheim,7,,,,Ville de Wittelsheim,10513,47.804434,7.236899,ptf,68
212203897,Yffiniac,Denis Hamayon,Parti socialiste,COM,BRE-53,http://datarmor.cotesdarmor.fr/web/guest/donnees,8,,,,,5093,48.484065,-2.677555,ptf,22
216803841,Zillisheim,Michel Laugel,,COM,GES-44,https://data.mulhouse-alsace.fr/explore/?refine.publisher=Commune+de+Zillisheim,3,,,,Commune de Zillisheim,2685,47.695055,7.294953,ptf,68
